[{"country": "UA", "id": 707860, "coord": {"lat": 44.549999, "lon": 34.283333}, "name": "Hurzuf"}, {"country": "VE", "id": 3632308, "coord": {"lat": 8.598333, "lon": -71.144997}, "name": "Merida"}, {"country": "RU", "id": 464737, "coord": {"lat": 55.639999, "lon": 38.861942}, "name": "Zaponor\u2019ye"}, {"country": "RU", "id": 481725, "coord": {"lat": 43.741943, "lon": 39.681389}, "name": "Tret\u2019ya Rota"}, {"country": "IN", "id": 1257986, "coord": {"lat": 34.049999, "lon": 77.416664}, "name": "Rumbak"}, {"country": "JP", "id": 1861387, "coord": {"lat": 36.77145, "lon": 136.770493}, "name": "Ishikawa-ken"}, {"country": "AU", "id": 2207349, "coord": {"lat": -27.063919, "lon": 153.149597}, "name": "Bellara"}, {"country": "US", "id": 4673179, "coord": {"lat": 31.40266, "lon": -98.081139}, "name": "Bee House"}, {"country": "CF", "id": 2384618, "coord": {"lat": 4.25, "lon": 18.283331}, "name": "Mbongot\u00e9"}, {"country": "ID", "id": 6388445, "coord": {"lat": -7.43028, "lon": 109.0075}, "name": "Karangmangle"}, {"country": "", "id": 6255148, "coord": {"lat": 48.69096, "lon": 9.140625}, "name": "Europe"}, {"country": "NL", "id": 2744819, "coord": {"lat": 52.716671, "lon": 5.13333}, "name": "Gemeente Wervershoof"}, {"country": "JP", "id": 1863250, "coord": {"lat": 32.799999, "lon": 130.699997}, "name": "Hanabatach\u014d"}, {"country": "IT", "id": 6540662, "coord": {"lat": 44.883942, "lon": 7.33312}, "name": "Pinerolo"}, {"country": "CU", "id": 3746183, "coord": {"lat": 23.13833, "lon": -82.364166}, "name": "Centro Habana"}, {"country": "SL", "id": 2410048, "coord": {"lat": 7.96472, "lon": -11.73833}, "name": "Bo"}, {"country": "BE", "id": 2784549, "coord": {"lat": 50.738628, "lon": 5.7019}, "name": "Vis\u00e9"}, {"country": "CD", "id": 210379, "coord": {"lat": -4.96667, "lon": 23.450001}, "name": "Lusambo"}, {"country": "CD", "id": 2314300, "coord": {"lat": -4.5, "lon": 15.5}, "name": "Ville de Kinshasa"}, {"country": "DE", "id": 6547426, "coord": {"lat": 53.062222, "lon": 8.19785}, "name": "Wardenburg"}, {"country": "DE", "id": 2820086, "coord": {"lat": 51.568611, "lon": 7.7175}, "name": "Kreis Unna"}, {"country": "DE", "id": 2949188, "coord": {"lat": 52, "lon": 8.5}, "name": "Bielefeld"}, {"country": "DO", "id": 3495858, "coord": {"lat": 18.5, "lon": -71.416672}, "name": "Neiba"}, {"country": "ES", "id": 6359459, "coord": {"lat": 36.551491, "lon": -4.61206}, "name": "Fuengirola"}, {"country": "ES", "id": 6359300, "coord": {"lat": 40.327358, "lon": -3.77931}, "name": "Legan\u00e9s"}, {"country": "ES", "id": 6356068, "coord": {"lat": 41.65057, "lon": 2.14934}, "name": "Caldes de Montbui"}, {"country": "FM", "id": 7626930, "coord": {"lat": 6.93273, "lon": 158.1427}, "name": "Sokehs Municipality"}, {"country": "FR", "id": 6438526, "coord": {"lat": 50.716671, "lon": 3.15}, "name": "Tourcoing"}, {"country": "FR", "id": 6454341, "coord": {"lat": 48.066669, "lon": -2.98333}, "name": "Pontivy"}, {"country": "FR", "id": 6430468, "coord": {"lat": 49.216671, "lon": 1.16667}, "name": "Louviers"}, {"country": "FR", "id": 6441821, "coord": {"lat": 45.7686, "lon": 4.9598}, "name": "D\u00e9cines-Charpieu"}, {"country": "FR", "id": 6455331, "coord": {"lat": 47.633331, "lon": 6.86667}, "name": "Belfort"}, {"country": "GB", "id": 7290657, "coord": {"lat": 52.196121, "lon": -2.20886}, "name": "Worcester District"}, {"country": "GB", "id": 7291795, "coord": {"lat": 53.516338, "lon": -2.02418}, "name": "Mossley"}, {"country": "GB", "id": 2657122, "coord": {"lat": 54.5, "lon": -5.58333}, "name": "Ards District"}, {"country": "GB", "id": 3333227, "coord": {"lat": 55.933331, "lon": -4.2}, "name": "East Dunbartonshire"}, {"country": "GB", "id": 7296623, "coord": {"lat": 53.70216, "lon": -0.87588}, "name": "Goole"}, {"country": "GB", "id": 7300082, "coord": {"lat": 54.830681, "lon": -1.8608}, "name": "Healeyfield"}, {"country": "GB", "id": 2641376, "coord": {"lat": 54.666672, "lon": -5.66667}, "name": "North Down District"}, {"country": "GH", "id": 2301400, "coord": {"lat": 5.96562, "lon": -1.77995}, "name": "Dunkwa"}, {"country": "GT", "id": 3589799, "coord": {"lat": 14.96667, "lon": -91.800003}, "name": "Municipio de San Marcos"}, {"country": "IN", "id": 1252744, "coord": {"lat": 14.96667, "lon": 74.716667}, "name": "Yellapur"}, {"country": "IT", "id": 6540026, "coord": {"lat": 40.49733, "lon": 17.64131}, "name": "Oria"}, {"country": "IT", "id": 6537588, "coord": {"lat": 40.142921, "lon": 18.070419}, "name": "Galatone"}, {"country": "IT", "id": 6542123, "coord": {"lat": 41.12952, "lon": 14.78614}, "name": "Benevento"}, {"country": "MZ", "id": 1037370, "coord": {"lat": -11.31667, "lon": 40.349998}, "name": "Mocimboa"}, {"country": "NO", "id": 6453341, "coord": {"lat": 62.471241, "lon": 6.15424}, "name": "\u00c5lesund"}, {"country": "PL", "id": 7530961, "coord": {"lat": 49.960629, "lon": 18.600531}, "name": "Jastrz\u0119bie-Zdr\u00f3j"}, {"country": "TH", "id": 1607257, "coord": {"lat": 14.60592, "lon": 103.120811}, "name": "Prakhon Chai"}, {"country": "US", "id": 4191014, "coord": {"lat": 33.750381, "lon": -84.233253}, "name": "DeKalb County"}, {"country": "US", "id": 4431425, "coord": {"lat": 30.42325, "lon": -88.6278}, "name": "Jackson County"}, {"country": "US", "id": 4703071, "coord": {"lat": 30.050211, "lon": -99.300323}, "name": "Kerr County"}, {"country": "US", "id": 4764849, "coord": {"lat": 37.304321, "lon": -77.287201}, "name": "City of Hopewell"}, {"country": "US", "id": 4784205, "coord": {"lat": 37.293468, "lon": -80.054764}, "name": "City of Salem"}, {"country": "US", "id": 5000477, "coord": {"lat": 42.700031, "lon": -82.949928}, "name": "Macomb County"}, {"country": "US", "id": 7250946, "coord": {"lat": 40.783329, "lon": -73.95472}, "name": "Carnegie Hill"}, {"country": "US", "id": 5525886, "coord": {"lat": 28.76692, "lon": -100.350349}, "name": "Maverick County"}, {"country": "UZ", "id": 1513900, "coord": {"lat": 41.55389, "lon": 69.700829}, "name": "Iskandar"}, {"country": "VE", "id": 3625123, "coord": {"lat": 10.06667, "lon": -67.5}, "name": "Municipio Zamora"}, {"country": "VE", "id": 3631506, "coord": {"lat": 10.08333, "lon": -68.666672}, "name": "Municipio Nirgua"}, {"country": "VE", "id": 8131484, "coord": {"lat": 10.57945, "lon": -62.300289}, "name": "Municipio Valdez"}, {"country": "VE", "id": 3640668, "coord": {"lat": 8.33333, "lon": -72.25}, "name": "Municipio Garc\u00eda de Hevia"}, {"country": "DE", "id": 2900752, "coord": {"lat": 47.549999, "lon": 9.68333}, "name": "Holdereggen"}, {"country": "DE", "id": 2821254, "coord": {"lat": 48.950001, "lon": 10.91667}, "name": "Treuchtlingen"}, {"country": "AZ", "id": 586925, "coord": {"lat": 40.517891, "lon": 50.113899}, "name": "Buzovna"}, {"country": "BI", "id": 425551, "coord": {"lat": -3.2682, "lon": 29.607901}, "name": "Muramvya"}, {"country": "CL", "id": 3879123, "coord": {"lat": -37.5, "lon": -72.666672}, "name": "Nacimiento"}, {"country": "ET", "id": 330811, "coord": {"lat": 8.9, "lon": 39.916672}, "name": "Metahara"}, {"country": "ET", "id": 343593, "coord": {"lat": 7.06667, "lon": 37.700001}, "name": "Areka"}, {"country": "FR", "id": 6455403, "coord": {"lat": 48.76667, "lon": 1.91667}, "name": "Maurepas"}, {"country": "ID", "id": 1214191, "coord": {"lat": 3.5679, "lon": 98.956001}, "name": "Perbaungan"}, {"country": "ID", "id": 1624545, "coord": {"lat": -6.5397, "lon": 111.051804}, "name": "Tayu"}, {"country": "ID", "id": 1638981, "coord": {"lat": -7.71694, "lon": 109.912781}, "name": "Kutoarjo"}, {"country": "ID", "id": 1648266, "coord": {"lat": -7.91346, "lon": 113.821449}, "name": "Bondowoso"}, {"country": "IN", "id": 1253133, "coord": {"lat": 19.466669, "lon": 72.800003}, "name": "Virar"}, {"country": "IN", "id": 1253744, "coord": {"lat": 17.405769, "lon": 78.559113}, "name": "Uppal Kalan"}, {"country": "IN", "id": 1254335, "coord": {"lat": 9.38333, "lon": 76.566673}, "name": "Tiruvalla"}, {"country": "IN", "id": 1255104, "coord": {"lat": 21.566669, "lon": 74.216667}, "name": "Taloda"}, {"country": "IN", "id": 1255621, "coord": {"lat": 16.08333, "lon": 78.866669}, "name": "Srisailam"}, {"country": "IN", "id": 1255963, "coord": {"lat": 28.933331, "lon": 79.699997}, "name": "Sitarganj"}, {"country": "IN", "id": 1256539, "coord": {"lat": 15, "lon": 75.23333}, "name": "Shiggaon"}, {"country": "IN", "id": 1257198, "coord": {"lat": 28.433331, "lon": 74.48333}, "name": "Sardarshahr"}, {"country": "IN", "id": 1257698, "coord": {"lat": 12.96667, "lon": 75.783333}, "name": "Sakleshpur"}, {"country": "IN", "id": 1258584, "coord": {"lat": 30.25, "lon": 75.23333}, "name": "Rampura"}, {"country": "IN", "id": 1259693, "coord": {"lat": 28.368401, "lon": 75.604103}, "name": "Pilani"}, {"country": "IN", "id": 1260612, "coord": {"lat": 23.299999, "lon": 79.98333}, "name": "Panagar"}, {"country": "IT", "id": 6542104, "coord": {"lat": 37.53405, "lon": 14.95377}, "name": "Misterbianco"}, {"country": "JP", "id": 1854028, "coord": {"lat": 34.283329, "lon": 132.266663}, "name": "Ono"}, {"country": "KR", "id": 1832909, "coord": {"lat": 38.105831, "lon": 127.989441}, "name": "Yanggu"}, {"country": "KZ", "id": 1521379, "coord": {"lat": 42.18301, "lon": 69.883926}, "name": "Lenger"}, {"country": "PE", "id": 3693057, "coord": {"lat": -4.83778, "lon": -80.645561}, "name": "Querecotillo"}, {"country": "PG", "id": 2100633, "coord": {"lat": -6.21319, "lon": 155.536743}, "name": "Arawa"}, {"country": "PH", "id": 1686549, "coord": {"lat": 14.2, "lon": 121}, "name": "Silang"}, {"country": "RS", "id": 790698, "coord": {"lat": 44.039719, "lon": 21.316389}, "name": "Glogovac"}, {"country": "AM", "id": 616464, "coord": {"lat": 40.175831, "lon": 44.018608}, "name": "Lukashin"}, {"country": "AM", "id": 616828, "coord": {"lat": 41.24358, "lon": 44.817371}, "name": "Bagratashen"}, {"country": "AM", "id": 823791, "coord": {"lat": 40.31356, "lon": 44.404831}, "name": "Nor Yerznka"}, {"country": "AR", "id": 3435525, "coord": {"lat": -27.5131, "lon": -55.608959}, "name": "Cerro Cora"}, {"country": "AR", "id": 3845490, "coord": {"lat": -27.954821, "lon": -65.865501}, "name": "Los Varela"}, {"country": "AT", "id": 2760814, "coord": {"lat": 46.926392, "lon": 15.45111}, "name": "Wundschuh"}, {"country": "AT", "id": 2763118, "coord": {"lat": 46.865559, "lon": 15.77028}, "name": "Unterauersbach"}, {"country": "AT", "id": 7873657, "coord": {"lat": 47.50407, "lon": 12.20422}, "name": "S\u00f6ll"}, {"country": "AT", "id": 2766143, "coord": {"lat": 48.083328, "lon": 16.783331}, "name": "Scharndorf"}, {"country": "AT", "id": 7872417, "coord": {"lat": 46.823872, "lon": 15.44996}, "name": "Sankt Nikolai im Sausal"}, {"country": "AT", "id": 7873412, "coord": {"lat": 47.01886, "lon": 15.69616}, "name": "Sankt Marein bei Graz"}, {"country": "AT", "id": 7872901, "coord": {"lat": 48.662849, "lon": 15.49357}, "name": "R\u00f6hrenbach"}, {"country": "AT", "id": 7873575, "coord": {"lat": 47.220139, "lon": 15.72771}, "name": "Puch bei Weiz"}, {"country": "AT", "id": 2769344, "coord": {"lat": 48.46632, "lon": 14.38471}, "name": "Ottenschlag im Muhlkreis"}, {"country": "AT", "id": 7873612, "coord": {"lat": 47.273251, "lon": 11.0973}, "name": "Oberhofen im Inntal"}, {"country": "AT", "id": 2770897, "coord": {"lat": 47.599998, "lon": 16.549999}, "name": "Neckenmarkt"}, {"country": "AT", "id": 7871739, "coord": {"lat": 48.281181, "lon": 16.63883}, "name": "Markgrafneusiedl"}, {"country": "AT", "id": 7872618, "coord": {"lat": 47.497478, "lon": 10.69546}, "name": "Lechaschau"}, {"country": "RU", "id": 2027487, "coord": {"lat": 49.4212, "lon": 130.084198}, "name": "Arkhara"}, {"country": "ES", "id": 6544490, "coord": {"lat": 40.38866, "lon": -3.70035}, "name": "Usera"}, {"country": "FR", "id": 3027857, "coord": {"lat": 47.8097, "lon": 7.17699}, "name": "Cernay"}, {"country": "AU", "id": 2176264, "coord": {"lat": -27.5, "lon": 153.116669}, "name": "Belmont"}, {"country": "GB", "id": 2636147, "coord": {"lat": 51.422329, "lon": -0.33053}, "name": "Teddington"}, {"country": "DE", "id": 2835411, "coord": {"lat": 49.14389, "lon": 9.055}, "name": "Schwaigern"}, {"country": "DE", "id": 2953541, "coord": {"lat": 50.683331, "lon": 11.26667}, "name": "Bad Blankenburg"}, {"country": "DE", "id": 2959441, "coord": {"lat": 52.435478, "lon": 13.54825}, "name": "Adlershof"}, {"country": "DE", "id": 2873606, "coord": {"lat": 52.437801, "lon": 13.38109}, "name": "Mariendorf"}, {"country": "CH", "id": 2660540, "coord": {"lat": 46.59214, "lon": 6.46391}, "name": "Grancy"}, {"country": "ZA", "id": 1004962, "coord": {"lat": -29.01269, "lon": 29.86619}, "name": "Estcourt"}, {"country": "ZA", "id": 944531, "coord": {"lat": -26.314011, "lon": 26.822229}, "name": "Ventersdorp"}, {"country": "BY", "id": 626064, "coord": {"lat": 55.02486, "lon": 30.795561}, "name": "Lyozna"}, {"country": "RO", "id": 662284, "coord": {"lat": 45.549999, "lon": 25.299999}, "name": "Zarnesti"}, {"country": "MT", "id": 2562746, "coord": {"lat": 35.88694, "lon": 14.4025}, "name": "Imdina"}, {"country": "PE", "id": 3693461, "coord": {"lat": -6.7675, "lon": -79.777222}, "name": "Pomalca"}, {"country": "PE", "id": 3930769, "coord": {"lat": -13.23092, "lon": -70.754013}, "name": "Quince Mil"}, {"country": "DE", "id": 2864067, "coord": {"lat": 53.55196, "lon": 9.98558}, "name": "Neustadt"}, {"country": "GB", "id": 2648299, "coord": {"lat": 52.573009, "lon": 1.73069}, "name": "Gorleston-on-Sea"}, {"country": "IT", "id": 3177672, "coord": {"lat": 45.68898, "lon": 9.60705}, "name": "Curno"}, {"country": "PL", "id": 3093768, "coord": {"lat": 50.427689, "lon": 19.39465}, "name": "Lazy"}, {"country": "CN", "id": 1806097, "coord": {"lat": 26.661671, "lon": 119.522781}, "name": "Ningde"}, {"country": "CA", "id": 6075357, "coord": {"lat": 43.578899, "lon": -79.658302}, "name": "Mississauga"}, {"country": "CN", "id": 1800657, "coord": {"lat": 39.939171, "lon": 116.091667}, "name": "Mentougou"}, {"country": "UA", "id": 703447, "coord": {"lat": 50.433334, "lon": 30.516666}, "name": "Misto Kyyiv"}, {"country": "VE", "id": 3481258, "coord": {"lat": 10.580556, "lon": -66.99778}, "name": "La Horquilla"}, {"country": "RU", "id": 560756, "coord": {"lat": 55.612221, "lon": 36.983334}, "name": "Golitsyno"}, {"country": "UA", "id": 689552, "coord": {"lat": 44.483334, "lon": 34.099998}, "name": "Vinogradnoye"}, {"country": "US", "id": 5508180, "coord": {"lat": 36.805531, "lon": -114.067192}, "name": "Mesquite"}, {"country": "UY", "id": 3442778, "coord": {"lat": -34.763329, "lon": -56.385281}, "name": "Delta del Tigre"}, {"country": "UZ", "id": 1217734, "coord": {"lat": 38.206108, "lon": 67.198608}, "name": "Boysun"}, {"country": "UZ", "id": 1512934, "coord": {"lat": 41.372219, "lon": 69.381668}, "name": "Salor"}, {"country": "VE", "id": 3648112, "coord": {"lat": 8.75988, "lon": -70.414467}, "name": "Municipio Bol\u00edvar"}, {"country": "YE", "id": 69558, "coord": {"lat": 14.25388, "lon": 44.31176}, "name": "Yar\u012bm"}, {"country": "ZW", "id": 890983, "coord": {"lat": -18.20476, "lon": 28.9349}, "name": "Gokwe"}, {"country": "RU", "id": 6417711, "coord": {"lat": 55.785831, "lon": 37.851944}, "name": "Pos\u00eblok Neftebazy"}, {"country": "RU", "id": 480041, "coord": {"lat": 57.009644, "lon": 35.004879}, "name": "Tverskaya Oblast\u2019"}, {"country": "RU", "id": 498337, "coord": {"lat": 56, "lon": 36.599998}, "name": "Savel\u2019yevo"}, {"country": "RU", "id": 528211, "coord": {"lat": 56.133331, "lon": 37.916668}, "name": "Mayskoye"}, {"country": "RU", "id": 818486, "coord": {"lat": 55.261944, "lon": 36.665001}, "name": "Rogacheva"}, {"country": "IN", "id": 1268571, "coord": {"lat": 25.283333, "lon": 82.966667}, "name": "Kakarmatha"}, {"country": "RU", "id": 481603, "coord": {"lat": 59.916668, "lon": 29.75}, "name": "Troitskaya"}, {"country": "BY", "id": 619258, "coord": {"lat": 53.333332, "lon": 25.583332}, "name": "Zalozy"}, {"country": "RU", "id": 805616, "coord": {"lat": 43.707222, "lon": 39.7775}, "name": "Nizhneye Orekhovo"}, {"country": "GE", "id": 613220, "coord": {"lat": 43.390556, "lon": 40.013058}, "name": "Leselidze"}, {"country": "RU", "id": 584003, "coord": {"lat": 44.139999, "lon": 39.029999}, "name": "Agoy"}, {"country": "RU", "id": 797077, "coord": {"lat": 48.698891, "lon": 40.347221}, "name": "Popovka"}, {"country": "RU", "id": 826278, "coord": {"lat": 54.92889, "lon": 20.156944}, "name": "Prigorodnyy"}, {"country": "PK", "id": 1176303, "coord": {"lat": 25.845833, "lon": 63.393055}, "name": "Jamak"}, {"country": "RU", "id": 504849, "coord": {"lat": 52.983334, "lon": 36.133331}, "name": "Prokurovka"}, {"country": "JP", "id": 1862047, "coord": {"lat": 35.040321, "lon": 134.825974}, "name": "Hy\u014dgo-ken"}, {"country": "JP", "id": 1865694, "coord": {"lat": 35.180168, "lon": 136.906555}, "name": "Aichi-ken"}, {"country": "RU", "id": 483269, "coord": {"lat": 43.25528, "lon": 42.515282}, "name": "Terskol"}, {"country": "RU", "id": 2019963, "coord": {"lat": 54.431938, "lon": 101.301392}, "name": "Mingatuy"}, {"country": "RU", "id": 8144372, "coord": {"lat": 47.252258, "lon": 39.835018}, "name": "Kirlichnyy"}, {"country": "RU", "id": 1495797, "coord": {"lat": 55.9575, "lon": 92.551941}, "name": "Ovsyanka"}, {"country": "CL", "id": 3883281, "coord": {"lat": -34.5, "lon": -71}, "name": "Regi\u00f3n del Libertador General Bernardo O\u2019Higgins"}, {"country": "AU", "id": 7839434, "coord": {"lat": -34.510349, "lon": 138.427826}, "name": "Mallala"}, {"country": "AU", "id": 2166456, "coord": {"lat": -28.533331, "lon": 151.916672}, "name": "Fleurbaix"}, {"country": "AU", "id": 2078058, "coord": {"lat": -26.316669, "lon": 118.383331}, "name": "Abbotts"}, {"country": "BR", "id": 3471324, "coord": {"lat": -25.433331, "lon": -49.23333}, "name": "Atuba"}, {"country": "BR", "id": 6322112, "coord": {"lat": -23.3841, "lon": -46.31583}, "name": "Aruj\u00e1"}, {"country": "US", "id": 4722147, "coord": {"lat": 28.33362, "lon": -97.166939}, "name": "Refugio County"}, {"country": "US", "id": 4059229, "coord": {"lat": 31.492109, "lon": -86.36496}, "name": "Dozier"}, {"country": "CA", "id": 5974031, "coord": {"lat": 43.433392, "lon": -81.499763}, "name": "Hensall"}, {"country": "CA", "id": 6325484, "coord": {"lat": 47.035301, "lon": -70.459999}, "name": "Cap-Saint-Ignace"}, {"country": "CA", "id": 6111984, "coord": {"lat": 49.333179, "lon": -117.235512}, "name": "Porto Rico"}, {"country": "AU", "id": 2207391, "coord": {"lat": -16.842091, "lon": 145.739227}, "name": "Holloways Beach"}, {"country": "ZM", "id": 921064, "coord": {"lat": -14, "lon": 29}, "name": "Central Province"}, {"country": "MW", "id": 924716, "coord": {"lat": -13.51094, "lon": 33.46146}, "name": "Nkhongue"}, {"country": "AU", "id": 7839403, "coord": {"lat": -12.66175, "lon": 135.822815}, "name": "East Arnhem"}, {"country": "ID", "id": 1642669, "coord": {"lat": -7.5, "lon": 110}, "name": "Provinsi Jawa Tengah"}, {"country": "EC", "id": 3658394, "coord": {"lat": -2, "lon": -77.5}, "name": "Republic of Ecuador"}, {"country": "KE", "id": 181562, "coord": {"lat": -2.13333, "lon": 37.450001}, "name": "Poka"}, {"country": "ID", "id": 1623673, "coord": {"lat": -0.38333, "lon": 117.050003}, "name": "Toayan"}, {"country": "CD", "id": 216139, "coord": {"lat": 2.5, "lon": 27}, "name": "Province Orientale"}, {"country": "NG", "id": 2337542, "coord": {"lat": 5.5, "lon": 7.16667}, "name": "Imo State"}, {"country": "GH", "id": 2297816, "coord": {"lat": 6.02824, "lon": 0.07775}, "name": "Muete"}, {"country": "SS", "id": 408657, "coord": {"lat": 8.15, "lon": 26}, "name": "Western Bahr el Ghazal State"}, {"country": "ET", "id": 7667785, "coord": {"lat": 8.43442, "lon": 39.0308}, "name": "Koka"}, {"country": "NG", "id": 2343379, "coord": {"lat": 9.06667, "lon": 6.03333}, "name": "Emagiti"}, {"country": "VE", "id": 3628051, "coord": {"lat": 9.52012, "lon": -67.233681}, "name": "San Juan de Paya"}, {"country": "CM", "id": 2231755, "coord": {"lat": 11, "lon": 14.5}, "name": "Far North Region"}, {"country": "NI", "id": 3619548, "coord": {"lat": 12.24806, "lon": -86.547997}, "name": "El Papalote"}, {"country": "TH", "id": 1607016, "coord": {"lat": 12.83333, "lon": 101.433327}, "name": "Changwat Rayong"}, {"country": "TH", "id": 1609348, "coord": {"lat": 13.87719, "lon": 100.71991}, "name": "Krung Thep Mahanakhon"}, {"country": "YE", "id": 7356639, "coord": {"lat": 13.9922, "lon": 44.19886}, "name": "Bayt Sa\u2018d N\u0101\u015fir"}, {"country": "PH", "id": 1692194, "coord": {"lat": 14.66667, "lon": 121.5}, "name": "Province of Quezon"}, {"country": "TH", "id": 1608057, "coord": {"lat": 14.70802, "lon": 101.416138}, "name": "Pak Chong"}, {"country": "YE", "id": 71132, "coord": {"lat": 15.26069, "lon": 44.4249}, "name": "Sanaa"}, {"country": "HN", "id": 3613358, "coord": {"lat": 15.75, "lon": -85.666672}, "name": "Departamento de Col\u00f3n"}, {"country": "MX", "id": 3531011, "coord": {"lat": 16.5, "lon": -92.5}, "name": "Estado de Chiapas"}, {"country": "DO", "id": 3499976, "coord": {"lat": 18.48333, "lon": -69.966667}, "name": "La Venta"}, {"country": "MM", "id": 1292118, "coord": {"lat": 21.066669, "lon": 94.550003}, "name": "Thayetchin"}, {"country": "TW", "id": 7280291, "coord": {"lat": 24.15114, "lon": 120.705406}, "name": "Taiwan"}, {"country": "ES", "id": 2510769, "coord": {"lat": 40, "lon": -4}, "name": "Kingdom of Spain"}, {"country": "AF", "id": 1133835, "coord": {"lat": 32.144299, "lon": 68.178207}, "name": "Marghakay"}, {"country": "DZ", "id": 2496049, "coord": {"lat": 32.49094, "lon": 3.67347}, "name": "Gharda\u00efa"}, {"country": "AF", "id": 1435246, "coord": {"lat": 33.386532, "lon": 68.530434}, "name": "Kh\u0101n\u012b-ye \u2018Uly\u0101"}, {"country": "US", "id": 4187459, "coord": {"lat": 34.466751, "lon": -85.33329}, "name": "Chattooga County"}, {"country": "AF", "id": 1141133, "coord": {"lat": 34.539558, "lon": 63.02243}, "name": "Ghurumb\u0101w"}, {"country": "US", "id": 4460324, "coord": {"lat": 35.700142, "lon": -79.266411}, "name": "Chatham County"}, {"country": "US", "id": 4652680, "coord": {"lat": 36.032291, "lon": -89.25563}, "name": "Rehoboth"}, {"country": "KR", "id": 6802827, "coord": {"lat": 37.507198, "lon": 127.320099}, "name": "\uad34\ub0b4"}, {"country": "GR", "id": 8133884, "coord": {"lat": 38.141659, "lon": 23.361919}, "name": "Dimos Mandra-Eidyllia"}, {"country": "IT", "id": 2525104, "coord": {"lat": 38.25, "lon": 15.51667}, "name": "Castanea delle Furie"}, {"country": "US", "id": 5386729, "coord": {"lat": 38.519348, "lon": -122.137199}, "name": "Redbud Park (historical)"}, {"country": "GR", "id": 6697806, "coord": {"lat": 39.563351, "lon": 25.345461}, "name": "North Aegean"}, {"country": "JP", "id": 2112569, "coord": {"lat": 39.383331, "lon": 140.050003}, "name": "Ishiwaki"}, {"country": "US", "id": 5583173, "coord": {"lat": 40.072208, "lon": -105.508331}, "name": "Ward"}, {"country": "PT", "id": 8010485, "coord": {"lat": 40.158249, "lon": -8.80609}, "name": "Figueira da Foz"}, {"country": "US", "id": 5771084, "coord": {"lat": 40.726879, "lon": -113.488876}, "name": "Barro"}, {"country": "IT", "id": 3179865, "coord": {"lat": 41.23333, "lon": 14.16667}, "name": "Provincia di Caserta"}, {"country": "GR", "id": 733839, "coord": {"lat": 41.166672, "lon": 24.83333}, "name": "Nom\u00f3s X\u00e1nthis"}, {"country": "UZ", "id": 1484841, "coord": {"lat": 42, "lon": 64}, "name": "Navoiy Province"}, {"country": "US", "id": 5562484, "coord": {"lat": 41.699841, "lon": -123.901176}, "name": "Del Norte County"}, {"country": "IT", "id": 3180145, "coord": {"lat": 42.25, "lon": 13.38333}, "name": "Casamaina"}, {"country": "FR", "id": 6426205, "coord": {"lat": 42.76667, "lon": 1.75}, "name": "Garanou"}, {"country": "FR", "id": 2995468, "coord": {"lat": 43.333328, "lon": 5.5}, "name": "Arrondissement de Marseille"}, {"country": "BA", "id": 3269932, "coord": {"lat": 43.521671, "lon": 18.18417}, "name": "Tinje"}, {"country": "FR", "id": 6431472, "coord": {"lat": 44.066669, "lon": 4.48333}, "name": "Vallabrix"}, {"country": "US", "id": 5587585, "coord": {"lat": 44.435452, "lon": -116.040131}, "name": "Cabarton"}, {"country": "US", "id": 5259487, "coord": {"lat": 45.250519, "lon": -89.05011}, "name": "Langlade County"}, {"country": "IT", "id": 6542284, "coord": {"lat": 45.4389, "lon": 12.33092}, "name": "Venezia"}, {"country": "SI", "id": 3197146, "coord": {"lat": 45.95137, "lon": 15.46063}, "name": "Ob\u010dina Kr\u0161ko"}, {"country": "RO", "id": 675366, "coord": {"lat": 46.533329, "lon": 26.91667}, "name": "Izvoarele de Sus"}, {"country": "CH", "id": 7287482, "coord": {"lat": 47.009701, "lon": 9.4253}, "name": "Vilters-Wangs"}, {"country": "CH", "id": 2661566, "coord": {"lat": 47.108521, "lon": 7.24608}, "name": "Bellmund"}, {"country": "CH", "id": 6291126, "coord": {"lat": 47.573429, "lon": 8.54108}, "name": "Hinter Stadtberg"}, {"country": "SK", "id": 3343955, "coord": {"lat": 48.333328, "lon": 17.16667}, "name": "Bratislavsk\u00fd Kraj"}, {"country": "SK", "id": 3056843, "coord": {"lat": 49.210861, "lon": 19.28545}, "name": "Ve\u013ek\u00fd Bysterec"}, {"country": "DE", "id": 2896977, "coord": {"lat": 49.59639, "lon": 8.58861}, "name": "H\u00fcttenfeld"}, {"country": "CZ", "id": 3071155, "coord": {"lat": 50.087742, "lon": 14.52123}, "name": "Male\u0161ice"}, {"country": "DE", "id": 2804107, "coord": {"lat": 50.73708, "lon": 13.76553}, "name": "Zinnwald-Georgenfeld"}, {"country": "GB", "id": 2648110, "coord": {"lat": 51.5, "lon": -0.16667}, "name": "Greater London"}, {"country": "DE", "id": 2831874, "coord": {"lat": 51.666672, "lon": 7.18333}, "name": "Sinsen"}, {"country": "PL", "id": 7531413, "coord": {"lat": 52.23954, "lon": 21.681141}, "name": "Jakub\u00f3w"}, {"country": "DE", "id": 2934571, "coord": {"lat": 53.416672, "lon": 7.96667}, "name": "D\u00fcnkirchen"}, {"country": "DK", "id": 2618038, "coord": {"lat": 55.650002, "lon": 12.11667}, "name": "Ladeg\u00e5rdshuse"}, {"country": "FI", "id": 650861, "coord": {"lat": 60.866669, "lon": 26.700001}, "name": "Kouvola"}, {"country": "FR", "id": 3008452, "coord": {"lat": 48.01667, "lon": 1.21667}, "name": "L'Allier"}, {"country": "US", "id": 5790289, "coord": {"lat": 48.978729, "lon": -122.32238}, "name": "Clearbrook"}, {"country": "PH", "id": 1712813, "coord": {"lat": 12.98333, "lon": 121.466667}, "name": "Gloria"}, {"country": "ES", "id": 6357731, "coord": {"lat": 36.967979, "lon": -3.45289}, "name": "Lanjar\u00f3n"}, {"country": "IT", "id": 2523281, "coord": {"lat": 39.23056, "lon": 9.09694}, "name": "Sant\u2019Avendrace"}, {"country": "US", "id": 5039576, "coord": {"lat": 44.56329, "lon": -95.094437}, "name": "North Redwood"}, {"country": "IT", "id": 6536269, "coord": {"lat": 45.642101, "lon": 12.29331}, "name": "Casier"}, {"country": "BE", "id": 2784199, "coord": {"lat": 50.414879, "lon": 6.11207}, "name": "Waimes"}, {"country": "AU", "id": 7839622, "coord": {"lat": -31.97994, "lon": 115.799423}, "name": "Nedlands"}, {"country": "FR", "id": 2991213, "coord": {"lat": 47.666672, "lon": 7.41667}, "name": "Arrondissement de Mulhouse"}, {"country": "DE", "id": 3220832, "coord": {"lat": 48.44083, "lon": 11.735}, "name": "Landkreis Freising"}, {"country": "LB", "id": 6275364, "coord": {"lat": 33.962219, "lon": 35.689999}, "name": "El Ks\u00e2r"}, {"country": "CA", "id": 5887023, "coord": {"lat": 43.745991, "lon": -79.431068}, "name": "Armour Heights"}, {"country": "TC", "id": 3576979, "coord": {"lat": 21.9, "lon": -72.033333}, "name": "Kew"}, {"country": "BG", "id": 725615, "coord": {"lat": 43.433331, "lon": 25.466669}, "name": "V\u016drzulitsa"}, {"country": "SE", "id": 2701590, "coord": {"lat": 58.083328, "lon": 12.15}, "name": "K\u00e4rra"}, {"country": "ES", "id": 6356921, "coord": {"lat": 36.734509, "lon": -5.71978}, "name": "Arcos de la Frontera"}, {"country": "PT", "id": 2267094, "coord": {"lat": 39.666672, "lon": -8.83333}, "name": "Distrito de Leiria"}, {"country": "GB", "id": 2641545, "coord": {"lat": 51.976002, "lon": -0.76595}, "name": "Newton Longville"}, {"country": "GB", "id": 2648857, "coord": {"lat": 58.216671, "lon": -6.21667}, "name": "Garrabost"}, {"country": "GB", "id": 2635437, "coord": {"lat": 51.67598, "lon": -4.13667}, "name": "Trostre"}, {"country": "ES", "id": 3111829, "coord": {"lat": 42.316669, "lon": 2.18333}, "name": "Ribes Altes"}, {"country": "IT", "id": 2524777, "coord": {"lat": 39.933331, "lon": 18.116671}, "name": "Felline"}, {"country": "IT", "id": 3163948, "coord": {"lat": 40.833328, "lon": 14.23333}, "name": "Vomero"}, {"country": "GB", "id": 7294598, "coord": {"lat": 53.189949, "lon": -2.85604}, "name": "Great Boughton"}, {"country": "DE", "id": 2879021, "coord": {"lat": 51.466671, "lon": 7.11667}, "name": "Leithe"}, {"country": "DK", "id": 6543944, "coord": {"lat": 55.98333, "lon": 9.21667}, "name": "Ikast-Brande Kommune"}, {"country": "DE", "id": 2921959, "coord": {"lat": 49.466671, "lon": 7.78333}, "name": "Gehrsweilerhof"}, {"country": "AU", "id": 7839624, "coord": {"lat": -31.69898, "lon": 116.649643}, "name": "Northam"}, {"country": "AU", "id": 2159454, "coord": {"lat": -37.73333, "lon": 145.116669}, "name": "Lower Plenty"}, {"country": "FR", "id": 6452423, "coord": {"lat": 50.533329, "lon": 2.95}, "name": "Allennes-les-Marais"}, {"country": "PH", "id": 1690091, "coord": {"lat": 13.64222, "lon": 123.205833}, "name": "San Felipe"}, {"country": "IT", "id": 6536003, "coord": {"lat": 45.71656, "lon": 7.1667}, "name": "Saint-Nicolas"}, {"country": "GB", "id": 2644287, "coord": {"lat": 51.702801, "lon": -1.10495}, "name": "Little Milton"}, {"country": "ES", "id": 2518328, "coord": {"lat": 36.76849, "lon": -3.87743}, "name": "El Molino"}, {"country": "NL", "id": 2746609, "coord": {"lat": 51.745209, "lon": 4.55083}, "name": "Strijen"}, {"country": "GB", "id": 2649715, "coord": {"lat": 50.154411, "lon": -5.07113}, "name": "Falmouth"}, {"country": "GB", "id": 2656060, "coord": {"lat": 52.020531, "lon": -2.03478}, "name": "Beckford"}, {"country": "BR", "id": 3458825, "coord": {"lat": -23.533331, "lon": -46.700001}, "name": "Lapa"}, {"country": "AU", "id": 2065001, "coord": {"lat": -33.98333, "lon": 115.75}, "name": "Nannup"}, {"country": "IT", "id": 6543838, "coord": {"lat": 45.151749, "lon": 8.04903}, "name": "Cavagnolo"}, {"country": "FR", "id": 6438285, "coord": {"lat": 50.716671, "lon": 2.53333}, "name": "Hazebrouck"}, {"country": "IT", "id": 3171456, "coord": {"lat": 44.700001, "lon": 10.08333}, "name": "Provincia di Parma"}, {"country": "GB", "id": 3333139, "coord": {"lat": 52.416672, "lon": -1.5}, "name": "City and Borough of Coventry"}, {"country": "CN", "id": 1817692, "coord": {"lat": 33.631672, "lon": 111.943893}, "name": "Baihe"}, {"country": "RU", "id": 527191, "coord": {"lat": 52.8978, "lon": 40.4907}, "name": "Michurinsk"}, {"country": "RU", "id": 6864865, "coord": {"lat": 54.583801, "lon": 86.145401}, "name": "Sverdlovskiy"}, {"country": "ZA", "id": 998210, "coord": {"lat": -26.00526, "lon": 28.126369}, "name": "Halfway House"}, {"country": "US", "id": 5078878, "coord": {"lat": 40.779179, "lon": -98.730911}, "name": "Shelton"}, {"country": "US", "id": 5064432, "coord": {"lat": 41.700008, "lon": -98.083672}, "name": "Boone County"}, {"country": "US", "id": 4723416, "coord": {"lat": 33.591221, "lon": -95.549683}, "name": "Rockwell"}, {"country": "US", "id": 5723848, "coord": {"lat": 44.925961, "lon": -122.655922}, "name": "Drake Crossing"}, {"country": "AU", "id": 7839478, "coord": {"lat": -31.935419, "lon": 115.798866}, "name": "Cambridge"}, {"country": "AU", "id": 2154787, "coord": {"lat": -34.883331, "lon": 150.600006}, "name": "Nowra"}, {"country": "AU", "id": 2144332, "coord": {"lat": -31.450001, "lon": 152.733337}, "name": "Wauchope"}, {"country": "AU", "id": 2077347, "coord": {"lat": -34.150002, "lon": 138.416672}, "name": "Balaklava"}, {"country": "AU", "id": 2059539, "coord": {"lat": -28.783331, "lon": 114.650002}, "name": "Utakarra"}, {"country": "JP", "id": 1860797, "coord": {"lat": 34.666672, "lon": 133.916672}, "name": "Kaigand\u014dri"}, {"country": "JP", "id": 1863130, "coord": {"lat": 34.916672, "lon": 137.149994}, "name": "Harisakich\u014d"}, {"country": "JP", "id": 1862554, "coord": {"lat": 32.75, "lon": 129.866669}, "name": "Hiradogoyamachi"}, {"country": "JP", "id": 1865103, "coord": {"lat": 33.183331, "lon": 129.899994}, "name": "Arita"}, {"country": "JP", "id": 1856243, "coord": {"lat": 35.383331, "lon": 136.266663}, "name": "Nagahama"}, {"country": "JP", "id": 1848706, "coord": {"lat": 33.466671, "lon": 130.566666}, "name": "Yamae"}, {"country": "JP", "id": 1850708, "coord": {"lat": 33.73333, "lon": 135.366669}, "name": "Tanabe"}, {"country": "JP", "id": 2112370, "coord": {"lat": 39.200001, "lon": 141.116669}, "name": "Kanegasaki"}, {"country": "JP", "id": 1861202, "coord": {"lat": 34.783329, "lon": 134.533325}, "name": "Iwami"}, {"country": "JP", "id": 1863917, "coord": {"lat": 34.48333, "lon": 133.366669}, "name": "Fukuyama"}, {"country": "JP", "id": 2130705, "coord": {"lat": 43.551392, "lon": 142.053055}, "name": "Akabira"}, {"country": "JP", "id": 2130700, "coord": {"lat": 43.083328, "lon": 140.817215}, "name": "Akaigawa"}, {"country": "JP", "id": 1849347, "coord": {"lat": 28.299999, "lon": 129.233337}, "name": "Uken"}, {"country": "JP", "id": 1848528, "coord": {"lat": 34.066669, "lon": 136.199997}, "name": "Yanohama"}, {"country": "JP", "id": 2127545, "coord": {"lat": 43.51667, "lon": 142.050003}, "name": "Utashinai"}, {"country": "IN", "id": 1259385, "coord": {"lat": 11.66667, "lon": 92.75}, "name": "Port Blair"}, {"country": "FR", "id": 6440000, "coord": {"lat": 45.783329, "lon": 3.08333}, "name": "Clermont-Ferrand"}, {"country": "FR", "id": 2983360, "coord": {"lat": 46, "lon": 4}, "name": "Arrondissement de Roanne"}, {"country": "FR", "id": 6454207, "coord": {"lat": 49.049999, "lon": -1.43333}, "name": "Coutances"}, {"country": "FR", "id": 3031676, "coord": {"lat": 46, "lon": 6.66667}, "name": "Arrondissement de Bonneville"}, {"country": "FR", "id": 3034873, "coord": {"lat": 49.13221, "lon": -0.47795}, "name": "Baron-sur-Odon"}, {"country": "RU", "id": 1507172, "coord": {"lat": 55.619171, "lon": 89.09111}, "name": "Dubinino"}, {"country": "AF", "id": 1120879, "coord": {"lat": 33.146671, "lon": 68.791672}, "name": "Zarah Sharan"}, {"country": "AF", "id": 1148709, "coord": {"lat": 32.758701, "lon": 61.653969}, "name": "Anar Darah"}, {"country": "AG", "id": 3576361, "coord": {"lat": 17.065651, "lon": -61.87466}, "name": "Bolands"}, {"country": "FR", "id": 6448871, "coord": {"lat": 43.799999, "lon": -0.35}, "name": "Castandet"}, {"country": "IT", "id": 6540063, "coord": {"lat": 36.953739, "lon": 14.53318}, "name": "Vittoria"}, {"country": "IT", "id": 3165197, "coord": {"lat": 45.602982, "lon": 9.51995}, "name": "Trezzo sullAdda"}, {"country": "IT", "id": 6458615, "coord": {"lat": 39.120071, "lon": 17.081341}, "name": "Provincia di Crotone"}, {"country": "IT", "id": 6536505, "coord": {"lat": 45.535671, "lon": 9.27635}, "name": "Cologno Monzese"}, {"country": "IT", "id": 6539444, "coord": {"lat": 46.11348, "lon": 8.28962}, "name": "Domodossola"}, {"country": "IT", "id": 6541032, "coord": {"lat": 44.352268, "lon": 11.71582}, "name": "Imola"}, {"country": "IT", "id": 6537243, "coord": {"lat": 45.733791, "lon": 10.93718}, "name": "Avio"}, {"country": "IT", "id": 3182918, "coord": {"lat": 44.616669, "lon": 10.71667}, "name": "Arceto"}, {"country": "IT", "id": 6536506, "coord": {"lat": 45.53957, "lon": 9.17094}, "name": "Cormano"}, {"country": "IT", "id": 3172240, "coord": {"lat": 40.79073, "lon": 17.131701}, "name": "Noci"}, {"country": "IT", "id": 6537231, "coord": {"lat": 45.29858, "lon": 10.47538}, "name": "Castel Goffredo"}, {"country": "IT", "id": 6537787, "coord": {"lat": 37.19104, "lon": 14.18367}, "name": "Butera"}, {"country": "IT", "id": 6543726, "coord": {"lat": 45.832279, "lon": 8.98364}, "name": "Ronago"}, {"country": "IT", "id": 6536662, "coord": {"lat": 45.729912, "lon": 12.68232}, "name": "Santo Stino di Livenza"}, {"country": "SE", "id": 602150, "coord": {"lat": 63.828419, "lon": 20.25972}, "name": "Umea"}, {"country": "PT", "id": 2262540, "coord": {"lat": 39.450001, "lon": -8.25}, "name": "Tramagal"}, {"country": "PT", "id": 2263919, "coord": {"lat": 39.416939, "lon": -8.9936}, "name": "Riba Fria"}, {"country": "GR", "id": 8133759, "coord": {"lat": 35.315041, "lon": 24.487341}, "name": "Dimos Rethymno"}, {"country": "GB", "id": 7290590, "coord": {"lat": 53.220119, "lon": -0.55664}, "name": "Lincoln District"}, {"country": "GB", "id": 3333136, "coord": {"lat": 53.583328, "lon": -2.33333}, "name": "Borough of Bury"}, {"country": "GB", "id": 2645093, "coord": {"lat": 53.302891, "lon": -2.37482}, "name": "Knutsford"}, {"country": "GB", "id": 7298372, "coord": {"lat": 50.263691, "lon": -5.05831}, "name": "Truro"}, {"country": "GB", "id": 7290586, "coord": {"lat": 52.60778, "lon": -1.38402}, "name": "Hinckley and Bosworth District"}, {"country": "GB", "id": 2640968, "coord": {"lat": 54.583328, "lon": -7.25}, "name": "Omagh District"}, {"country": "GB", "id": 7296308, "coord": {"lat": 51.720711, "lon": -5.03444}, "name": "Milford Haven"}, {"country": "GB", "id": 7297451, "coord": {"lat": 51.41671, "lon": -1.52201}, "name": "Hungerford"}, {"country": "GB", "id": 2654817, "coord": {"lat": 51.946121, "lon": -3.38887}, "name": "Brecon"}, {"country": "GB", "id": 7294618, "coord": {"lat": 53.28157, "lon": -3.66256}, "name": "Llysfaen"}, {"country": "GB", "id": 2652417, "coord": {"lat": 54.643051, "lon": -6.74595}, "name": "Cookstown"}, {"country": "GB", "id": 2654464, "coord": {"lat": 55.766151, "lon": -6.36134}, "name": "Bruichladdich"}, {"country": "GB", "id": 7297046, "coord": {"lat": 52.08548, "lon": -3.58225}, "name": "Llangamarch"}, {"country": "GB", "id": 7292365, "coord": {"lat": 53.293251, "lon": -4.49044}, "name": "Bodedern"}, {"country": "CA", "id": 6138517, "coord": {"lat": 45.272709, "lon": -66.067657}, "name": "Saint John"}, {"country": "CA", "id": 5955895, "coord": {"lat": 56.726761, "lon": -111.381027}, "name": "Fort McMurray"}, {"country": "CA", "id": 6095246, "coord": {"lat": 52.366829, "lon": -114.9188}, "name": "Otway"}, {"country": "CA", "id": 5942547, "coord": {"lat": 53.21682, "lon": -114.985443}, "name": "Drayton Valley"}, {"country": "CA", "id": 6139184, "coord": {"lat": 45.616779, "lon": -73.649178}, "name": "Saint-Vincent-de-Paul"}, {"country": "CA", "id": 6067959, "coord": {"lat": 46.316811, "lon": -78.69957}, "name": "Mattawa"}, {"country": "CA", "id": 5924109, "coord": {"lat": 49.166801, "lon": -64.91539}, "name": "Cloridorme"}, {"country": "MX", "id": 3996472, "coord": {"lat": 20.51667, "lon": -104.783333}, "name": "Mascota"}, {"country": "MX", "id": 4008420, "coord": {"lat": 24.85, "lon": -100.316673}, "name": "El Potos\u00ed"}, {"country": "MX", "id": 3527021, "coord": {"lat": 24.88472, "lon": -99.673332}, "name": "Hualahuises"}, {"country": "DE", "id": 2852456, "coord": {"lat": 52.21944, "lon": 12.675}, "name": "Landkreis Potsdam-Mittelmark"}, {"country": "DE", "id": 6553169, "coord": {"lat": 49.862301, "lon": 8.7441}, "name": "Ro\u00dfdorf"}, {"country": "DE", "id": 2879690, "coord": {"lat": 53.216671, "lon": 7.43333}, "name": "Leerort"}, {"country": "DE", "id": 2866322, "coord": {"lat": 51.223598, "lon": 9.0941}, "name": "Netze"}, {"country": "DE", "id": 2929670, "coord": {"lat": 50.98333, "lon": 11.03333}, "name": "Erfurt"}, {"country": "DE", "id": 3220830, "coord": {"lat": 48.909168, "lon": 11.37528}, "name": "Landkreis Eichst\u00e4tt"}, {"country": "DE", "id": 2920203, "coord": {"lat": 52.150002, "lon": 8.05}, "name": "Glane"}, {"country": "DE", "id": 2917698, "coord": {"lat": 47.549999, "lon": 7.68333}, "name": "Grenzach-Wyhlen"}, {"country": "DE", "id": 2895044, "coord": {"lat": 50.933331, "lon": 11.58333}, "name": "Jena"}, {"country": "DE", "id": 2938540, "coord": {"lat": 48.833328, "lon": 12.96667}, "name": "Deggendorf"}, {"country": "DE", "id": 6556206, "coord": {"lat": 48.400002, "lon": 11.6167}, "name": "Kranzberg"}, {"country": "DE", "id": 2861315, "coord": {"lat": 52.183331, "lon": 8.66667}, "name": "Oberbehme"}, {"country": "DE", "id": 2814374, "coord": {"lat": 50.549999, "lon": 12.96667}, "name": "Walthersdorf"}, {"country": "DE", "id": 2911144, "coord": {"lat": 49.700001, "lon": 11.28333}, "name": "Hammerb\u00fchl"}, {"country": "DE", "id": 6555919, "coord": {"lat": 47.616699, "lon": 7.98333}, "name": "Rickenbach"}, {"country": "DE", "id": 2871705, "coord": {"lat": 52.200001, "lon": 14.35}, "name": "Merz"}, {"country": "DE", "id": 2934728, "coord": {"lat": 51.513119, "lon": 10.25951}, "name": "Duderstadt"}, {"country": "DE", "id": 2883151, "coord": {"lat": 48.63583, "lon": 9.79989}, "name": "Kuchen"}, {"country": "DE", "id": 2817904, "coord": {"lat": 47.893101, "lon": 11.77915}, "name": "Valley"}, {"country": "DE", "id": 2953775, "coord": {"lat": 52.400002, "lon": 13.1}, "name": "Babelsberg"}, {"country": "DE", "id": 2867198, "coord": {"lat": 49.98333, "lon": 11.91667}, "name": "Nagel"}, {"country": "DE", "id": 2850615, "coord": {"lat": 48.466671, "lon": 12.25}, "name": "Rampoldsdorf"}, {"country": "DE", "id": 2906159, "coord": {"lat": 50.883331, "lon": 7.36667}, "name": "Herchenrath"}, {"country": "DE", "id": 2894341, "coord": {"lat": 47.616669, "lon": 8.3}, "name": "Kadelburg"}, {"country": "DE", "id": 2939333, "coord": {"lat": 51.979172, "lon": 8.98424}, "name": "Dalborn"}, {"country": "DE", "id": 6556389, "coord": {"lat": 48.099998, "lon": 11.4}, "name": "Krailling"}, {"country": "DE", "id": 6555682, "coord": {"lat": 49.457199, "lon": 8.60639}, "name": "Edingen-Neckarhausen"}, {"country": "DE", "id": 2918288, "coord": {"lat": 50, "lon": 10.2}, "name": "Grafenrheinfeld"}, {"country": "DE", "id": 2948696, "coord": {"lat": 49.150002, "lon": 10.55}, "name": "Birkach"}, {"country": "DE", "id": 6553093, "coord": {"lat": 51.894699, "lon": 6.971}, "name": "Velen"}, {"country": "DE", "id": 2855440, "coord": {"lat": 53.433891, "lon": 11.82167}, "name": "Landkreis Parchim"}, {"country": "DE", "id": 2859739, "coord": {"lat": 50.373501, "lon": 8.69087}, "name": "Ober-Morlen"}, {"country": "DE", "id": 6556442, "coord": {"lat": 47.833302, "lon": 10.8333}, "name": "Schwabbruck"}, {"country": "DE", "id": 2955604, "coord": {"lat": 52.261009, "lon": 9.58351}, "name": "Argestorf"}, {"country": "DE", "id": 2938198, "coord": {"lat": 48.149139, "lon": 9.56373}, "name": "Dentingen"}, {"country": "DE", "id": 7602437, "coord": {"lat": 48.020302, "lon": 11.48689}, "name": "Baierbrunn"}, {"country": "DE", "id": 2827318, "coord": {"lat": 49.051392, "lon": 8.85083}, "name": "Sternenfels"}, {"country": "DE", "id": 2814599, "coord": {"lat": 48.73333, "lon": 12.75}, "name": "Wallersdorf"}, {"country": "DE", "id": 6555495, "coord": {"lat": 48.906658, "lon": 9.4685}, "name": "Allmersbach im Tal"}, {"country": "DE", "id": 2839032, "coord": {"lat": 48.005199, "lon": 11.84403}, "name": "Schlacht"}, {"country": "DE", "id": 7732321, "coord": {"lat": 50.619411, "lon": 7.53181}, "name": "B\u00fcrdenbach-Brucherm\u00fchle"}, {"country": "DE", "id": 6552522, "coord": {"lat": 52.779251, "lon": 9.21298}, "name": "Eystrup"}, {"country": "DE", "id": 2946952, "coord": {"lat": 52.783329, "lon": 9.46667}, "name": "Bohme"}, {"country": "DE", "id": 6556808, "coord": {"lat": 50.1833, "lon": 11.85}, "name": "Wei\u00dfdorf"}, {"country": "DE", "id": 2948895, "coord": {"lat": 51.616669, "lon": 10.16667}, "name": "Bilshausen"}, {"country": "DE", "id": 2959696, "coord": {"lat": 50.866669, "lon": 7.96667}, "name": "Achenbach"}, {"country": "DE", "id": 2841320, "coord": {"lat": 54.700001, "lon": 9.6}, "name": "Satrup"}, {"country": "DE", "id": 2875912, "coord": {"lat": 50.566669, "lon": 6.63333}, "name": "Lorbach"}, {"country": "DE", "id": 2819163, "coord": {"lat": 50.037239, "lon": 10.94599}, "name": "Unterleiterbach"}, {"country": "DE", "id": 6557149, "coord": {"lat": 48.233299, "lon": 10.85}, "name": "Oberottmarshausen"}, {"country": "DE", "id": 2924958, "coord": {"lat": 52.883331, "lon": 7.3}, "name": "Fresenburg"}, {"country": "IR", "id": 124544, "coord": {"lat": 36.25, "lon": 52.333328}, "name": "Ost\u0101n-e M\u0101zandar\u0101n"}, {"country": "IR", "id": 140380, "coord": {"lat": 37.474731, "lon": 57.329029}, "name": "Bojnurd"}, {"country": "NL", "id": 6544259, "coord": {"lat": 52.36861, "lon": 5.2375}, "name": "Gemeente Almere"}, {"country": "NL", "id": 2756668, "coord": {"lat": 51.799999, "lon": 4.65}, "name": "Gemeente Dordrecht"}, {"country": "NL", "id": 2750811, "coord": {"lat": 51.200001, "lon": 6}, "name": "Mijnheerkens"}, {"country": "NL", "id": 2755583, "coord": {"lat": 51.683331, "lon": 5.96667}, "name": "Gemeente Gennep"}, {"country": "NL", "id": 2746351, "coord": {"lat": 51.53167, "lon": 4.22083}, "name": "Tholen"}, {"country": "IL", "id": 294377, "coord": {"lat": 31.748541, "lon": 35.007038}, "name": "Ma\u1e96seya"}, {"country": "ES", "id": 2516336, "coord": {"lat": 38.783329, "lon": 0.16667}, "name": "Javea"}, {"country": "ES", "id": 6355479, "coord": {"lat": 38.491249, "lon": -0.73836}, "name": "Petrer"}, {"country": "ES", "id": 6358391, "coord": {"lat": 42.545891, "lon": 0.31028}, "name": "Plan"}, {"country": "ES", "id": 6360688, "coord": {"lat": 43.383888, "lon": -3.75243}, "name": "Medio Cudeyo"}, {"country": "ES", "id": 3120511, "coord": {"lat": 40.14526, "lon": -2.69026}, "name": "Huete"}, {"country": "ES", "id": 3129846, "coord": {"lat": 42.979301, "lon": -2.39889}, "name": "Arantzazu"}, {"country": "ES", "id": 3115305, "coord": {"lat": 43.514332, "lon": -5.88592}, "name": "N\u00fa\u00f1ez"}, {"country": "ES", "id": 2521424, "coord": {"lat": 38.319908, "lon": -0.55836}, "name": "Bacarot"}, {"country": "ES", "id": 6357250, "coord": {"lat": 37.478249, "lon": -4.16465}, "name": "Priego de C\u00f3rdoba"}, {"country": "ES", "id": 2521335, "coord": {"lat": 36.192371, "lon": -5.92186}, "name": "Barbate de Franco"}, {"country": "ES", "id": 3107512, "coord": {"lat": 40.01667, "lon": 3.83333}, "name": "ses Truqueries"}, {"country": "ES", "id": 6534154, "coord": {"lat": 42.041199, "lon": 3.13153}, "name": "Torroella de Montgr\u00ed"}, {"country": "ES", "id": 3107695, "coord": {"lat": 42.200001, "lon": -8.61667}, "name": "Torroso"}, {"country": "ES", "id": 3105412, "coord": {"lat": 40.935539, "lon": -5.02657}, "name": "Villamayor"}, {"country": "CL", "id": 3898749, "coord": {"lat": -33.040619, "lon": -71.60202}, "name": "Bar\u00f3n"}, {"country": "CL", "id": 3882722, "coord": {"lat": -33.416672, "lon": -70.633331}, "name": "Lo Contador"}, {"country": "ID", "id": 7529270, "coord": {"lat": -8.713, "lon": 115.181503}, "name": "Abianbase"}, {"country": "NZ", "id": 2182715, "coord": {"lat": -41.150002, "lon": 175}, "name": "Silverstream"}, {"country": "IE", "id": 2961636, "coord": {"lat": 53.280281, "lon": -6.44444}, "name": "Saggart"}, {"country": "BE", "id": 2800935, "coord": {"lat": 51.25, "lon": 3.21667}, "name": "Brugge"}, {"country": "BE", "id": 2784822, "coord": {"lat": 50.583328, "lon": 5.86667}, "name": "Verviers"}, {"country": "BE", "id": 2803183, "coord": {"lat": 50.611301, "lon": 5.59942}, "name": "Angleur"}, {"country": "BE", "id": 2792135, "coord": {"lat": 50.48333, "lon": 4.2}, "name": "Longtain"}, {"country": "BE", "id": 2788187, "coord": {"lat": 50.23333, "lon": 5.5}, "name": "Rendeux"}, {"country": "CH", "id": 7285229, "coord": {"lat": 46.931149, "lon": 6.80414}, "name": "Bevaix"}, {"country": "CH", "id": 7669598, "coord": {"lat": 47.29636, "lon": 7.90484}, "name": "Gl\u00e4nd"}, {"country": "CH", "id": 7286852, "coord": {"lat": 47.70483, "lon": 8.81468}, "name": "Ramsen"}, {"country": "CH", "id": 7285845, "coord": {"lat": 47.682362, "lon": 8.6367}, "name": "Flurlingen"}, {"country": "CH", "id": 2659472, "coord": {"lat": 46.98674, "lon": 9.05468}, "name": "Nidfurn"}, {"country": "ZA", "id": 1105773, "coord": {"lat": -25.793501, "lon": 28.299999}, "name": "Garsfontein"}, {"country": "CV", "id": 3374161, "coord": {"lat": 15.26667, "lon": -23.716669}, "name": "Concelho do Tarrafal"}, {"country": "LS", "id": 932184, "coord": {"lat": -30.41667, "lon": 28}, "name": "Quthing District"}, {"country": "SO", "id": 61993, "coord": {"lat": 9.59271, "lon": 44.06229}, "name": "Dalooldho"}, {"country": "LR", "id": 2273638, "coord": {"lat": 5.19639, "lon": -7.87556}, "name": "Fish Town"}, {"country": "RE", "id": 935612, "coord": {"lat": -21.02186, "lon": 55.536221}, "name": "Le Ramier"}, {"country": "TN", "id": 2472706, "coord": {"lat": 37.274422, "lon": 9.87391}, "name": "Bizerte"}, {"country": "TR", "id": 741045, "coord": {"lat": 40.48917, "lon": 29.308889}, "name": "Orhangazi"}, {"country": "TR", "id": 315373, "coord": {"lat": 39.75222, "lon": 39.492779}, "name": "Erzincan"}, {"country": "TR", "id": 738025, "coord": {"lat": 40.655022, "lon": 29.27693}, "name": "Yalova"}, {"country": "PL", "id": 3093826, "coord": {"lat": 53.416672, "lon": 14.56667}, "name": "\u0141asztownia"}, {"country": "PL", "id": 7530890, "coord": {"lat": 52.554649, "lon": 19.7857}, "name": "Powiat p\u0142ocki"}, {"country": "UA", "id": 695394, "coord": {"lat": 48.451172, "lon": 22.701941}, "name": "Rosvigovo"}, {"country": "CZ", "id": 3064377, "coord": {"lat": 49.416672, "lon": 14.66667}, "name": "Okres T\u00e1bor"}, {"country": "CZ", "id": 3063907, "coord": {"lat": 50.561008, "lon": 15.9127}, "name": "Trutnov"}, {"country": "CZ", "id": 3074149, "coord": {"lat": 49.144039, "lon": 15.00301}, "name": "Jindrichuv Hradec"}, {"country": "IS", "id": 3416900, "coord": {"lat": 64.138962, "lon": -21.956779}, "name": "Gr\u00edmssta\u00f0aholt"}, {"country": "HU", "id": 3049380, "coord": {"lat": 47.166672, "lon": 19.799999}, "name": "Kos\u00e1rhegy"}, {"country": "DE", "id": 6552709, "coord": {"lat": 53.232101, "lon": 8.54075}, "name": "Schwanewede"}, {"country": "GR", "id": 8133666, "coord": {"lat": 40.68195, "lon": 22.953409}, "name": "Dimos Pavlos Melas"}, {"country": "US", "id": 4703486, "coord": {"lat": 27.433649, "lon": -97.716942}, "name": "Kleberg County"}, {"country": "US", "id": 5528613, "coord": {"lat": 35.416721, "lon": -101.900459}, "name": "Potter County"}, {"country": "RO", "id": 680710, "coord": {"lat": 44.950001, "lon": 24.950001}, "name": "Corobe\u0163i"}, {"country": "AM", "id": 174706, "coord": {"lat": 39.906109, "lon": 44.731709}, "name": "Yenikend"}, {"country": "AT", "id": 2772444, "coord": {"lat": 47.91151, "lon": 16.16947}, "name": "Lindabrunn"}, {"country": "SI", "id": 3201730, "coord": {"lat": 46.137741, "lon": 14.59371}, "name": "Domzale"}, {"country": "LK", "id": 1244926, "coord": {"lat": 6.1241, "lon": 81.1185}, "name": "Hambantota"}, {"country": "LK", "id": 1231644, "coord": {"lat": 5.95, "lon": 80.550003}, "name": "Pallimulla"}, {"country": "TJ", "id": 1221194, "coord": {"lat": 37.914532, "lon": 69.783028}, "name": "Kulob"}, {"country": "FI", "id": 633592, "coord": {"lat": 60.416672, "lon": 25}, "name": "Tuusula"}, {"country": "MK", "id": 786565, "coord": {"lat": 41.638329, "lon": 22.46472}, "name": "Radovish"}, {"country": "UZ", "id": 1514216, "coord": {"lat": 40.91, "lon": 68.715561}, "name": "Chinaz"}, {"country": "CW", "id": 3513132, "coord": {"lat": 12.1, "lon": -68.916672}, "name": "Vianen"}, {"country": "GD", "id": 3579821, "coord": {"lat": 12.05, "lon": -61.73333}, "name": "White Gun"}, {"country": "HR", "id": 3202220, "coord": {"lat": 45.308331, "lon": 18.410561}, "name": "\u00d0akovo"}, {"country": "GP", "id": 3579761, "coord": {"lat": 16.02018, "lon": -61.746319}, "name": "Baillif"}, {"country": "KG", "id": 1222662, "coord": {"lat": 39.838558, "lon": 69.530579}, "name": "Isfana"}, {"country": "KG", "id": 1528193, "coord": {"lat": 42.89106, "lon": 74.850769}, "name": "Kant"}, {"country": "LI", "id": 3042058, "coord": {"lat": 47.166672, "lon": 9.53333}, "name": "Principality of Liechtenstein"}, {"country": "FO", "id": 2621808, "coord": {"lat": 62.24398, "lon": -6.81395}, "name": "Fuglafjordur"}, {"country": "GL", "id": 3422891, "coord": {"lat": 70.484558, "lon": -21.96221}, "name": "Ittoqqortoormiit"}, {"country": "CU", "id": 3556965, "coord": {"lat": 20.799999, "lon": -75.75}, "name": "Provincia de Holgu\u00edn"}, {"country": "GF", "id": 3381212, "coord": {"lat": 5.15, "lon": -52.650002}, "name": "Le Bourg"}, {"country": "YT", "id": 7521426, "coord": {"lat": -12.93497, "lon": 45.151058}, "name": "Chirongui"}, {"country": "MX", "id": 4013357, "coord": {"lat": 25.616671, "lon": -100.300003}, "name": "Colonia Mirador"}, {"country": "IT", "id": 6540163, "coord": {"lat": 44.352539, "lon": 9.30167}, "name": "Leivi"}, {"country": "KI", "id": 7601768, "coord": {"lat": 1.38081, "lon": 173.13887}, "name": "Bonriki Village"}, {"country": "VU", "id": 2136243, "coord": {"lat": -19.48333, "lon": 169.216675}, "name": "Looutel"}, {"country": "MY", "id": 7612483, "coord": {"lat": 4.5704, "lon": 101.088799}, "name": "Kampung Pasir Penjih"}, {"country": "CF", "id": 2382604, "coord": {"lat": 5.93333, "lon": 15.65}, "name": "Watiguina"}, {"country": "SO", "id": 59611, "coord": {"lat": 6.76972, "lon": 47.430828}, "name": "Gaalkacyo"}, {"country": "FR", "id": 6613145, "coord": {"lat": 48.966671, "lon": 2.43333}, "name": "Bonneuil-en-France"}, {"country": "MX", "id": 3802683, "coord": {"lat": 17.987499, "lon": -92.824997}, "name": "Dos Montes"}, {"country": "CA", "id": 5994519, "coord": {"lat": 55.2836, "lon": -77.749496}, "name": "Kuujjuarapik"}, {"country": "US", "id": 4682392, "coord": {"lat": 31.78348, "lon": -99.45034}, "name": "Coleman County"}, {"country": "US", "id": 4531980, "coord": {"lat": 33.93454, "lon": -96.428596}, "name": "Calera"}, {"country": "US", "id": 7122887, "coord": {"lat": 48.84861, "lon": -95.748329}, "name": "Mobile Court East"}, {"country": "US", "id": 7150586, "coord": {"lat": 39.88583, "lon": -105.119438}, "name": "Countryside"}, {"country": "US", "id": 5342441, "coord": {"lat": 36.593288, "lon": -121.834953}, "name": "Del Rey Oaks"}, {"country": "AF", "id": 6692413, "coord": {"lat": 34.26545, "lon": 67.345161}, "name": "Cool urhajo"}, {"country": "AT", "id": 2764347, "coord": {"lat": 48.033329, "lon": 14.41667}, "name": "Steyr Stadt"}, {"country": "AU", "id": 7281850, "coord": {"lat": -37.884609, "lon": 145.295395}, "name": "Ferntree Gully"}, {"country": "AZ", "id": 828315, "coord": {"lat": 40.083328, "lon": 48.916672}, "name": "Hajigabul Rayon"}, {"country": "AZ", "id": 587361, "coord": {"lat": 40.570278, "lon": 48.400871}, "name": "Aghsu"}, {"country": "BD", "id": 1185206, "coord": {"lat": 25.09433, "lon": 89.02169}, "name": "Joypurhat"}, {"country": "BE", "id": 2789162, "coord": {"lat": 50.50819, "lon": 3.59373}, "name": "Peruwelz"}, {"country": "BF", "id": 2362644, "coord": {"lat": 11.91667, "lon": -1.5}, "name": "Province du Baz\u00e8ga"}, {"country": "BF", "id": 2361373, "coord": {"lat": 12.07083, "lon": 1.78889}, "name": "Diapaga"}, {"country": "BH", "id": 290215, "coord": {"lat": 26.218611, "lon": 50.547779}, "name": "Jidd Hafs"}, {"country": "BI", "id": 426271, "coord": {"lat": -3.5, "lon": 29.950001}, "name": "iProvense ya Gitega"}, {"country": "BI", "id": 434147, "coord": {"lat": -3.86667, "lon": 30.1}, "name": "iProvense ya Rutana"}, {"country": "BJ", "id": 2597271, "coord": {"lat": 11.33333, "lon": 2.91667}, "name": "D\u00e9partement de l\u2019 Alibori"}, {"country": "BJ", "id": 2395317, "coord": {"lat": 11.29845, "lon": 2.43856}, "name": "Banikoara"}, {"country": "BO", "id": 3905792, "coord": {"lat": -14.81667, "lon": -66.849998}, "name": "San Borja"}, {"country": "BR", "id": 3386361, "coord": {"lat": -5.09417, "lon": -42.83667}, "name": "Timon"}, {"country": "BR", "id": 3391360, "coord": {"lat": -0.05833, "lon": -51.181671}, "name": "Santana"}, {"country": "BR", "id": 3395077, "coord": {"lat": -9.15167, "lon": -35.533329}, "name": "Matriz de Camaragibe"}, {"country": "BR", "id": 3398920, "coord": {"lat": -8.00167, "lon": -35.292782}, "name": "Gloria do Goita"}, {"country": "BR", "id": 3406429, "coord": {"lat": -1.50583, "lon": -48.625832}, "name": "Barcarena"}, {"country": "BR", "id": 3455580, "coord": {"lat": -15.35, "lon": -48.5}, "name": "Padre Bernardo"}, {"country": "BR", "id": 6322185, "coord": {"lat": -23.553391, "lon": -46.848518}, "name": "Carapicu\u00edba"}, {"country": "CA", "id": 5969093, "coord": {"lat": 42.98341, "lon": -79.866333}, "name": "Haldimand County"}, {"country": "CD", "id": 923058, "coord": {"lat": -10.87639, "lon": 26.596939}, "name": "Kambove"}, {"country": "CF", "id": 237478, "coord": {"lat": 4.31902, "lon": 21.17861}, "name": "Mobaye"}, {"country": "CF", "id": 2383204, "coord": {"lat": 3.5, "lon": 16.08333}, "name": "Pr\u00e9fecture de la Sangha-Mba\u00e9r\u00e9"}, {"country": "CG", "id": 2258378, "coord": {"lat": -4.75611, "lon": 11.85778}, "name": "Loandjili"}, {"country": "CL", "id": 3872395, "coord": {"lat": -33.59333, "lon": -71.621674}, "name": "San Antonio"}, {"country": "CL", "id": 7281020, "coord": {"lat": -33.444302, "lon": -70.725517}, "name": "Lo Prado"}, {"country": "CM", "id": 2225726, "coord": {"lat": 4.2898, "lon": 9.4103}, "name": "Muyuka"}, {"country": "CM", "id": 2229267, "coord": {"lat": 3.23333, "lon": 10.73333}, "name": "Lolodorf"}, {"country": "CM", "id": 2234794, "coord": {"lat": 6.75, "lon": 11.81667}, "name": "Banyo"}, {"country": "CN", "id": 1791464, "coord": {"lat": 28.36694, "lon": 121.360001}, "name": "Wenling"}, {"country": "CN", "id": 1803334, "coord": {"lat": 39.700001, "lon": 118.433327}, "name": "Linxi"}, {"country": "CN", "id": 1816406, "coord": {"lat": 34.84861, "lon": 118.044724}, "name": "Bianzhuang"}, {"country": "CU", "id": 3541999, "coord": {"lat": 22.34083, "lon": -80.55722}, "name": "Rodas"}, {"country": "DE", "id": 2827552, "coord": {"lat": 53.592201, "lon": 9.9287}, "name": "Stellingen"}, {"country": "DE", "id": 2904725, "coord": {"lat": 52.333328, "lon": 8.75}, "name": "Hille"}, {"country": "DE", "id": 2953310, "coord": {"lat": 53.183331, "lon": 8}, "name": "Bad Zwischenahn"}, {"country": "DZ", "id": 2487452, "coord": {"lat": 36.450279, "lon": 6.26444}, "name": "Mila"}, {"country": "DZ", "id": 2501680, "coord": {"lat": 36.577221, "lon": 3.00917}, "name": "Chebli"}, {"country": "DZ", "id": 2504703, "coord": {"lat": 36.619541, "lon": 4.08282}, "name": "Beni Douala"}, {"country": "DZ", "id": 2507877, "coord": {"lat": 35.376751, "lon": 5.90001}, "name": "Ain Touta"}, {"country": "EG", "id": 350789, "coord": {"lat": 30.17922, "lon": 31.205601}, "name": "Qalyub"}, {"country": "EG", "id": 358274, "coord": {"lat": 27.64176, "lon": 30.846621}, "name": "Dayr Mawas"}, {"country": "EG", "id": 360531, "coord": {"lat": 26.104259, "lon": 34.277931}, "name": "Al Qusayr"}, {"country": "EG", "id": 361435, "coord": {"lat": 26.23568, "lon": 32.003471}, "name": "Al Balyana"}, {"country": "EG", "id": 419435, "coord": {"lat": 31.20829, "lon": 31.63554}, "name": "Az Zarqa"}, {"country": "ES", "id": 2511180, "coord": {"lat": 28.68351, "lon": -17.76421}, "name": "Santa Cruz de la Palma"}, {"country": "ES", "id": 2522430, "coord": {"lat": 36.749611, "lon": -3.02055}, "name": "Adra"}, {"country": "ES", "id": 3128273, "coord": {"lat": 40.4165, "lon": 0.42709}, "name": "Benicarlo"}, {"country": "ET", "id": 328709, "coord": {"lat": 9.56667, "lon": 37.099998}, "name": "Shambu"}, {"country": "ET", "id": 333750, "coord": {"lat": 5.65, "lon": 36.650002}, "name": "Jinka"}, {"country": "ET", "id": 339686, "coord": {"lat": 11.85, "lon": 38.01667}, "name": "Debre Tabor"}, {"country": "FI", "id": 648056, "coord": {"lat": 60.510319, "lon": 22.46176}, "name": "Lieto"}, {"country": "FR", "id": 2977388, "coord": {"lat": 51.031158, "lon": 2.33984}, "name": "Saint-Pol-sur-Mer"}, {"country": "FR", "id": 2980586, "coord": {"lat": 45.736919, "lon": 4.79688}, "name": "Sainte-Foy-les-Lyon"}, {"country": "FR", "id": 2988998, "coord": {"lat": 45.717739, "lon": 4.80382}, "name": "Oullins"}, {"country": "FR", "id": 2994048, "coord": {"lat": 45.76667, "lon": 5}, "name": "Meyzieu"}, {"country": "FR", "id": 3005066, "coord": {"lat": 44.866001, "lon": -0.59411}, "name": "Le Bouscat"}, {"country": "FR", "id": 3023240, "coord": {"lat": 48.81451, "lon": 3.08498}, "name": "Coulommiers"}, {"country": "FR", "id": 3030985, "coord": {"lat": 44.956009, "lon": 4.91023}, "name": "Bourg-les-Valence"}, {"country": "GB", "id": 2640054, "coord": {"lat": 51.479031, "lon": -3.70362}, "name": "Porthcawl"}, {"country": "GB", "id": 2648215, "coord": {"lat": 56.01141, "lon": -3.72183}, "name": "Grangemouth"}, {"country": "GB", "id": 2652974, "coord": {"lat": 51.789669, "lon": 1.15597}, "name": "Clacton-on-Sea"}, {"country": "GE", "id": 614455, "coord": {"lat": 41.984219, "lon": 44.11578}, "name": "Gori"}, {"country": "HU", "id": 3044083, "coord": {"lat": 47.652889, "lon": 18.31838}, "name": "Tata"}, {"country": "HU", "id": 7284825, "coord": {"lat": 47.48299, "lon": 19.06591}, "name": "Budapest IX. keruelet"}, {"country": "HU", "id": 7284835, "coord": {"lat": 47.45293, "lon": 19.149429}, "name": "Budapest XIX. keruelet"}, {"country": "ID", "id": 1213655, "coord": {"lat": 3.761, "lon": 98.451302}, "name": "Stabat"}, {"country": "ID", "id": 1621655, "coord": {"lat": -6.9713, "lon": 110.066597}, "name": "Weleri"}, {"country": "ID", "id": 1623424, "coord": {"lat": 1.3038, "lon": 124.911201}, "name": "Tondano"}, {"country": "ID", "id": 1625929, "coord": {"lat": -2.08333, "lon": 101.383331}, "name": "Sungaipenuh"}, {"country": "ID", "id": 1626673, "coord": {"lat": -7.48315, "lon": 112.42704}, "name": "Soko"}, {"country": "ID", "id": 1626936, "coord": {"lat": -7.3515, "lon": 108.111}, "name": "Singaparna"}, {"country": "ID", "id": 1628884, "coord": {"lat": -2.53333, "lon": 112.949997}, "name": "Sampit"}, {"country": "ID", "id": 1630333, "coord": {"lat": -7.0868, "lon": 110.915802}, "name": "Purwodadi"}, {"country": "ID", "id": 1630935, "coord": {"lat": -3.4324, "lon": 119.343498}, "name": "Polewali"}, {"country": "ID", "id": 1632033, "coord": {"lat": -7.6453, "lon": 112.907501}, "name": "Pasuruan"}, {"country": "ID", "id": 1632998, "coord": {"lat": -6.28417, "lon": 107.810562}, "name": "Pamanukan"}, {"country": "ID", "id": 1634266, "coord": {"lat": -8.31507, "lon": 114.602547}, "name": "Negara"}, {"country": "ID", "id": 1635660, "coord": {"lat": -7.73333, "lon": 110.366669}, "name": "Melati"}, {"country": "ID", "id": 1636808, "coord": {"lat": -7.2975, "lon": 108.764198}, "name": "Majenang"}, {"country": "ID", "id": 1638352, "coord": {"lat": -6.6922, "lon": 111.452698}, "name": "Lasem"}, {"country": "ID", "id": 1639900, "coord": {"lat": -7.70583, "lon": 110.606392}, "name": "Klaten"}, {"country": "ID", "id": 1640765, "coord": {"lat": -7.16667, "lon": 112.633301}, "name": "Kebomas"}, {"country": "ID", "id": 1642414, "coord": {"lat": -7.54595, "lon": 112.23307}, "name": "Jombang"}, {"country": "ID", "id": 1644178, "coord": {"lat": -8.36667, "lon": 114.150002}, "name": "Genteng"}, {"country": "ID", "id": 1645518, "coord": {"lat": -7.7625, "lon": 110.431671}, "name": "Depok"}, {"country": "ID", "id": 1646194, "coord": {"lat": -6.2375, "lon": 106.695557}, "name": "Ciputat"}, {"country": "ID", "id": 1647383, "coord": {"lat": -6.55472, "lon": 106.700829}, "name": "Ciampea"}, {"country": "ID", "id": 1649595, "coord": {"lat": -7.3, "lon": 109.216667}, "name": "Baturaden"}, {"country": "ID", "id": 1650298, "coord": {"lat": -7.0455, "lon": 112.7351}, "name": "Bangkalan"}, {"country": "ID", "id": 1651531, "coord": {"lat": -3.69543, "lon": 128.181396}, "name": "Ambon"}, {"country": "ID", "id": 2005237, "coord": {"lat": -7.82694, "lon": 110.32917}, "name": "Kasihan"}, {"country": "IL", "id": 293822, "coord": {"lat": 32.85083, "lon": 35.070278}, "name": "Qiryat Yam"}, {"country": "IN", "id": 1252758, "coord": {"lat": 13.1075, "lon": 77.600281}, "name": "Yelahanka"}, {"country": "IN", "id": 1252997, "coord": {"lat": 12.93333, "lon": 79.383331}, "name": "Walajapet"}, {"country": "IN", "id": 1253193, "coord": {"lat": 23.566669, "lon": 72.75}, "name": "Vijapur"}, {"country": "IN", "id": 1253367, "coord": {"lat": 15.39585, "lon": 73.815681}, "name": "Vasco Da Gama"}, {"country": "IN", "id": 1253544, "coord": {"lat": 9.76667, "lon": 76.400002}, "name": "Vaikam"}, {"country": "IN", "id": 1253754, "coord": {"lat": 23.33333, "lon": 75.566673}, "name": "Unhel"}, {"country": "IN", "id": 1253944, "coord": {"lat": 10.58333, "lon": 77.25}, "name": "Udumalaippettai"}, {"country": "IN", "id": 1254080, "coord": {"lat": 21.383329, "lon": 79.73333}, "name": "Tumsar"}, {"country": "IN", "id": 1254322, "coord": {"lat": 12.66667, "lon": 79.550003}, "name": "Cheyyar"}, {"country": "IN", "id": 1254420, "coord": {"lat": 13.25861, "lon": 76.478333}, "name": "Tiptur"}, {"country": "IN", "id": 1254673, "coord": {"lat": 29.58639, "lon": 77.416672}, "name": "Thana Bhawan"}, {"country": "IN", "id": 1254858, "coord": {"lat": 17.033331, "lon": 74.599998}, "name": "Tasgaon"}, {"country": "IN", "id": 1255082, "coord": {"lat": 30.85, "lon": 74.933327}, "name": "Talwandi Bhai"}, {"country": "IN", "id": 1255346, "coord": {"lat": 25.466669, "lon": 82.416672}, "name": "Surianwan"}, {"country": "IN", "id": 1255616, "coord": {"lat": 9.51667, "lon": 77.633331}, "name": "Srivilliputhur"}, {"country": "IN", "id": 1255744, "coord": {"lat": 28.98333, "lon": 77.01667}, "name": "Sonipat"}, {"country": "IN", "id": 1255983, "coord": {"lat": 26.6, "lon": 85.48333}, "name": "Sitamarhi"}, {"country": "IN", "id": 1256067, "coord": {"lat": 24.883329, "lon": 72.866669}, "name": "Sirohi"}, {"country": "IN", "id": 1256295, "coord": {"lat": 25.08333, "lon": 85.416672}, "name": "Silao"}, {"country": "IN", "id": 1256422, "coord": {"lat": 22.752781, "lon": 88.342216}, "name": "Shrirampur"}, {"country": "IN", "id": 1256537, "coord": {"lat": 14.26667, "lon": 75.349998}, "name": "Shikarpur"}, {"country": "IN", "id": 1256671, "coord": {"lat": 29.450001, "lon": 77.316673}, "name": "Shamli"}, {"country": "IN", "id": 1256739, "coord": {"lat": 23.283331, "lon": 81.349998}, "name": "Shahdol"}, {"country": "IN", "id": 1256826, "coord": {"lat": 22.08333, "lon": 79.533333}, "name": "Seoni"}, {"country": "IN", "id": 1257060, "coord": {"lat": 20.58333, "lon": 74.199997}, "name": "Satana"}, {"country": "IN", "id": 1257369, "coord": {"lat": 16.26667, "lon": 74.48333}, "name": "Sankeshwar"}, {"country": "IN", "id": 1257540, "coord": {"lat": 28.58333, "lon": 78.550003}, "name": "Sambhal"}, {"country": "IN", "id": 1257762, "coord": {"lat": 19.466669, "lon": 76.466667}, "name": "Sailu"}, {"country": "IN", "id": 1257855, "coord": {"lat": 29.41667, "lon": 76.666672}, "name": "Safidon"}, {"country": "IN", "id": 1258099, "coord": {"lat": 18.433331, "lon": 73.116669}, "name": "Roha"}, {"country": "IN", "id": 1258207, "coord": {"lat": 24.200001, "lon": 83.033333}, "name": "Renukut"}, {"country": "IN", "id": 1258352, "coord": {"lat": 25.58333, "lon": 79.566673}, "name": "Rath"}, {"country": "IN", "id": 1258501, "coord": {"lat": 26.816669, "lon": 92.650002}, "name": "Rangapara"}, {"country": "IN", "id": 1258686, "coord": {"lat": 23.633329, "lon": 85.51667}, "name": "Ramgarh"}, {"country": "IN", "id": 1258816, "coord": {"lat": 21.933331, "lon": 75.133331}, "name": "Rajpur"}, {"country": "IN", "id": 1258891, "coord": {"lat": 33.383331, "lon": 74.300003}, "name": "Rajauri"}, {"country": "IN", "id": 1259026, "coord": {"lat": 17.6, "lon": 74.199997}, "name": "Rahimatpur"}, {"country": "IN", "id": 1259123, "coord": {"lat": 13.45, "lon": 79.550003}, "name": "Puttur"}, {"country": "IN", "id": 1259239, "coord": {"lat": 22.23333, "lon": 76.400002}, "name": "Punasa"}, {"country": "IN", "id": 1259408, "coord": {"lat": 16.066669, "lon": 80.566673}, "name": "Ponnuru"}, {"country": "IN", "id": 1259630, "coord": {"lat": 30.79722, "lon": 76.917221}, "name": "Pinjaur"}, {"country": "IN", "id": 1259775, "coord": {"lat": 31.029169, "lon": 75.784172}, "name": "Phillaur"}, {"country": "IN", "id": 1259878, "coord": {"lat": 11.15, "lon": 76.933327}, "name": "Periyanayakkanpalaiyam"}, {"country": "IN", "id": 1259961, "coord": {"lat": 18.616671, "lon": 79.366669}, "name": "Peddapalli"}, {"country": "IN", "id": 1260134, "coord": {"lat": 23.66667, "lon": 86.433327}, "name": "Pathardih"}, {"country": "IN", "id": 1260274, "coord": {"lat": 20.883329, "lon": 75.116669}, "name": "Parola"}, {"country": "IN", "id": 1260417, "coord": {"lat": 10.93333, "lon": 79.283333}, "name": "Papanasam"}, {"country": "IN", "id": 1260681, "coord": {"lat": 11.93333, "lon": 78.416672}, "name": "Pallippatti"}, {"country": "IN", "id": 1260771, "coord": {"lat": 18.76667, "lon": 84.416672}, "name": "Palasa"}, {"country": "IN", "id": 1260918, "coord": {"lat": 8.23333, "lon": 77.333328}, "name": "Padmanabhapuram"}, {"country": "IN", "id": 1261122, "coord": {"lat": 29.15, "lon": 78.416672}, "name": "Nurpur"}, {"country": "IN", "id": 1261382, "coord": {"lat": 29.83333, "lon": 76.916672}, "name": "Nilokheri"}, {"country": "IN", "id": 1261517, "coord": {"lat": 21.466669, "lon": 76.400002}, "name": "Nepa Nagar"}, {"country": "IN", "id": 1261642, "coord": {"lat": 26.866671, "lon": 82.133331}, "name": "Nawabganj"}, {"country": "IN", "id": 1261736, "coord": {"lat": 25.65, "lon": 77.900002}, "name": "Narwar"}, {"country": "IN", "id": 1261828, "coord": {"lat": 30.48333, "lon": 77.133331}, "name": "Narayangarh"}, {"country": "IN", "id": 1261910, "coord": {"lat": 12.11972, "lon": 76.682777}, "name": "Nanjangud"}, {"country": "IN", "id": 1262034, "coord": {"lat": 11.36667, "lon": 77.333328}, "name": "Nambiyur"}, {"country": "IN", "id": 1262116, "coord": {"lat": 22.433331, "lon": 80.116669}, "name": "Nainpur"}, {"country": "IN", "id": 1262240, "coord": {"lat": 13.33333, "lon": 79.583328}, "name": "Nagari"}, {"country": "IN", "id": 1262380, "coord": {"lat": 10.93333, "lon": 78.449997}, "name": "Musiri"}, {"country": "IN", "id": 1262484, "coord": {"lat": 22.066669, "lon": 81.683327}, "name": "Mungeli"}, {"country": "IN", "id": 1262566, "coord": {"lat": 11.8, "lon": 75.449997}, "name": "Mulappilangad"}, {"country": "IN", "id": 1262664, "coord": {"lat": 16.01667, "lon": 76.433327}, "name": "Mudgal"}, {"country": "IN", "id": 1262801, "coord": {"lat": 28.83333, "lon": 78.783333}, "name": "Moradabad"}, {"country": "IN", "id": 1263021, "coord": {"lat": 28.033331, "lon": 79.650002}, "name": "Miranpur Katra"}, {"country": "IN", "id": 1263148, "coord": {"lat": 23.200001, "lon": 88.116669}, "name": "Memari"}, {"country": "IN", "id": 1263293, "coord": {"lat": 30.08333, "lon": 75.25}, "name": "Maur"}, {"country": "IN", "id": 1263504, "coord": {"lat": 15.73333, "lon": 79.283333}, "name": "Markapur"}, {"country": "IN", "id": 1263610, "coord": {"lat": 18.65, "lon": 79.666672}, "name": "Manthani"}, {"country": "IN", "id": 1263723, "coord": {"lat": 25.35, "lon": 87.633331}, "name": "Manihari"}, {"country": "IN", "id": 1270800, "coord": {"lat": 12.95, "lon": 78.866669}, "name": "Gudiyatham"}, {"country": "IN", "id": 1278343, "coord": {"lat": 8.56667, "lon": 78.116669}, "name": "Arumuganeri"}, {"country": "IR", "id": 126409, "coord": {"lat": 33.535, "lon": 47.606098}, "name": "Kuhdasht"}, {"country": "IT", "id": 6541341, "coord": {"lat": 37.293442, "lon": 13.52636}, "name": "Porto Empedocle"}, {"country": "IT", "id": 6536160, "coord": {"lat": 45.523781, "lon": 9.58946}, "name": "Treviglio"}, {"country": "IT", "id": 6539617, "coord": {"lat": 46.168999, "lon": 9.86915}, "name": "Sondrio"}, {"country": "IT", "id": 3173560, "coord": {"lat": 40.781212, "lon": 14.75694}, "name": "Mercato San Severino"}, {"country": "IT", "id": 3182765, "coord": {"lat": 40.91441, "lon": 14.26713}, "name": "Arzano"}, {"country": "JM", "id": 3489586, "coord": {"lat": 18.049999, "lon": -77.533333}, "name": "Parish of Manchester"}, {"country": "JO", "id": 250625, "coord": {"lat": 31.16667, "lon": 35.75}, "name": "Mu\u1e29\u0101faz\u0327at al Karak"}, {"country": "JO", "id": 7838895, "coord": {"lat": 32.01778, "lon": 36.046391}, "name": "Russeifa"}, {"country": "JP", "id": 1849850, "coord": {"lat": 34.700001, "lon": 136.933334}, "name": "Toyohama"}, {"country": "JP", "id": 1851622, "coord": {"lat": 35.25, "lon": 136.716675}, "name": "Sobue"}, {"country": "JP", "id": 1853486, "coord": {"lat": 34.599998, "lon": 138.216675}, "name": "Oyama"}, {"country": "JP", "id": 1856476, "coord": {"lat": 37.066669, "lon": 138.883331}, "name": "Muikamachi"}, {"country": "JP", "id": 1858283, "coord": {"lat": 36.133331, "lon": 139.699997}, "name": "Kurihashi"}, {"country": "JP", "id": 1859951, "coord": {"lat": 34.508961, "lon": 135.792892}, "name": "Kashihara-shi"}, {"country": "JP", "id": 1861223, "coord": {"lat": 36.049999, "lon": 139.899994}, "name": "Iwai"}, {"country": "JP", "id": 1862034, "coord": {"lat": 34.599998, "lon": 133.466675}, "name": "Ibara"}, {"country": "JP", "id": 1863614, "coord": {"lat": 33.883331, "lon": 135.149994}, "name": "Gobo"}, {"country": "JP", "id": 1864155, "coord": {"lat": 34.566669, "lon": 133.233337}, "name": "Fuchu"}, {"country": "JP", "id": 2111425, "coord": {"lat": 36.549999, "lon": 140.416672}, "name": "Omiya"}, {"country": "JP", "id": 2112227, "coord": {"lat": 39.283329, "lon": 141.116669}, "name": "Kitakami"}, {"country": "JP", "id": 2112940, "coord": {"lat": 35.916672, "lon": 140.116669}, "name": "Fujishiro"}, {"country": "KE", "id": 184379, "coord": {"lat": -1.07829, "lon": 35.860119}, "name": "Narok"}, {"country": "KP", "id": 1871856, "coord": {"lat": 38.985279, "lon": 125.92778}, "name": "P\u2019y\u014fngyang-si"}, {"country": "KP", "id": 1877030, "coord": {"lat": 39.831669, "lon": 127.618607}, "name": "Hungnam"}, {"country": "KP", "id": 2040893, "coord": {"lat": 40.100559, "lon": 124.398064}, "name": "Sinuiju"}, {"country": "KR", "id": 1832830, "coord": {"lat": 37.489719, "lon": 127.490562}, "name": "Yangpyong"}, {"country": "KR", "id": 1841810, "coord": {"lat": 37.41, "lon": 127.257217}, "name": "Kwangju"}, {"country": "KR", "id": 1844174, "coord": {"lat": 36.600899, "lon": 126.665001}, "name": "Hongsung"}, {"country": "KR", "id": 6903078, "coord": {"lat": 35.541451, "lon": 128.495056}, "name": "Changnyeong"}, {"country": "KW", "id": 285812, "coord": {"lat": 29.173889, "lon": 48.121109}, "name": "Al Fintas"}, {"country": "KZ", "id": 1516519, "coord": {"lat": 45.487782, "lon": 64.078056}, "name": "Zhosaly"}, {"country": "LA", "id": 1655140, "coord": {"lat": 18.377781, "lon": 103.660072}, "name": "Muang Pakxan"}, {"country": "LK", "id": 1225018, "coord": {"lat": 8.7514, "lon": 80.497101}, "name": "Vavuniya"}, {"country": "LK", "id": 1236854, "coord": {"lat": 6.848, "lon": 79.926498}, "name": "Maharagama"}, {"country": "LK", "id": 1244397, "coord": {"lat": 6.9909, "lon": 79.883003}, "name": "Hendala"}, {"country": "LK", "id": 1250615, "coord": {"lat": 6.9895, "lon": 81.055702}, "name": "Badulla"}, {"country": "LS", "id": 932439, "coord": {"lat": -30.16667, "lon": 27.66667}, "name": "Mohale\u2019s Hoek District"}, {"country": "LY", "id": 89087, "coord": {"lat": 32.189999, "lon": 20.596531}, "name": "Al Abyar"}, {"country": "LY", "id": 2210394, "coord": {"lat": 32.881672, "lon": 13.35056}, "name": "Tagiura"}, {"country": "LY", "id": 2218840, "coord": {"lat": 31.75662, "lon": 13.99422}, "name": "Bani Walid"}, {"country": "MD", "id": 617381, "coord": {"lat": 46.728062, "lon": 29.707781}, "name": "Slobozia"}, {"country": "MM", "id": 1302439, "coord": {"lat": 21.33333, "lon": 95.099998}, "name": "Pakokku"}, {"country": "MX", "id": 3524903, "coord": {"lat": 17.933331, "lon": -94.083328}, "name": "Las Choapas"}, {"country": "MX", "id": 3999325, "coord": {"lat": 20.566669, "lon": -103.316673}, "name": "Las Pintas de Arriba"}, {"country": "MY", "id": 1735227, "coord": {"lat": 3.8077, "lon": 103.325996}, "name": "Kuantan"}, {"country": "NG", "id": 2319257, "coord": {"lat": 8.93333, "lon": 8.6}, "name": "Wamba"}, {"country": "NO", "id": 3149312, "coord": {"lat": 63.110451, "lon": 7.72795}, "name": "Kristiansund"}, {"country": "PE", "id": 3696417, "coord": {"lat": -9.9329, "lon": -76.241531}, "name": "Huanuco"}, {"country": "PE", "id": 3934239, "coord": {"lat": -13.07541, "lon": -76.317192}, "name": "Nuevo Imperial"}, {"country": "PE", "id": 3945985, "coord": {"lat": -16.62278, "lon": -72.711113}, "name": "Camana"}, {"country": "PG", "id": 2093967, "coord": {"lat": -5.55021, "lon": 150.142853}, "name": "Kimbe"}, {"country": "PH", "id": 1680613, "coord": {"lat": 6.33444, "lon": 124.952782}, "name": "Tupi"}, {"country": "PH", "id": 1682598, "coord": {"lat": 14.5678, "lon": 121.139397}, "name": "Taytay"}, {"country": "PH", "id": 1683343, "coord": {"lat": 14.08333, "lon": 121.116669}, "name": "Tanauan"}, {"country": "PH", "id": 1684269, "coord": {"lat": 7.44778, "lon": 125.807777}, "name": "Tagum"}, {"country": "PH", "id": 1685118, "coord": {"lat": 13.33333, "lon": 123.716667}, "name": "Tabaco"}, {"country": "PH", "id": 1685754, "coord": {"lat": 12.83333, "lon": 123.916672}, "name": "Province of Sorsogon"}, {"country": "PH", "id": 1686547, "coord": {"lat": 14.21567, "lon": 120.971367}, "name": "Silang"}, {"country": "PH", "id": 1687534, "coord": {"lat": 14.1079, "lon": 121.141357}, "name": "Santo Tomas"}, {"country": "PH", "id": 1688372, "coord": {"lat": 16.0009, "lon": 120.402298}, "name": "Santa Barbara"}, {"country": "PH", "id": 1688859, "coord": {"lat": 18.172501, "lon": 120.595299}, "name": "San Nicolas"}, {"country": "PH", "id": 1689129, "coord": {"lat": 15.0401, "lon": 120.7883}, "name": "San Luis"}, {"country": "PH", "id": 1689994, "coord": {"lat": 13.34806, "lon": 122.520561}, "name": "Aurora"}, {"country": "PH", "id": 1690315, "coord": {"lat": 15.2462, "lon": 120.849602}, "name": "San Antonio"}, {"country": "PH", "id": 1691280, "coord": {"lat": 12.8346, "lon": 120.768997}, "name": "Sablayan"}, {"country": "PH", "id": 1691904, "coord": {"lat": 15.6653, "lon": 120.640602}, "name": "Ramos"}, {"country": "PH", "id": 1692489, "coord": {"lat": 10.5203, "lon": 122.801697}, "name": "Pulupandan"}, {"country": "PH", "id": 1693077, "coord": {"lat": 6.22167, "lon": 125.06398}, "name": "Polomolok"}, {"country": "PH", "id": 1693795, "coord": {"lat": 13.5572, "lon": 123.273499}, "name": "Pili"}, {"country": "PH", "id": 1694775, "coord": {"lat": 7.37035, "lon": 124.26973}, "name": "Parang"}, {"country": "PH", "id": 1699208, "coord": {"lat": 14.53333, "lon": 121.216667}, "name": "Morong"}, {"country": "PH", "id": 1704758, "coord": {"lat": 10.13361, "lon": 124.844719}, "name": "Maasin"}, {"country": "PH", "id": 1713227, "coord": {"lat": 15.28333, "lon": 120.98333}, "name": "Gapan"}, {"country": "PH", "id": 1720503, "coord": {"lat": 13.88333, "lon": 120.650002}, "name": "Calatagan"}, {"country": "PH", "id": 1730750, "coord": {"lat": 14.93333, "lon": 121.033333}, "name": "Angat"}, {"country": "PK", "id": 1176997, "coord": {"lat": 30.450159, "lon": 73.698883}, "name": "Haveli"}, {"country": "PL", "id": 7533534, "coord": {"lat": 53.406799, "lon": 23.5026}, "name": "Sok\u00f3\u0142ka"}, {"country": "PL", "id": 7532072, "coord": {"lat": 50.943401, "lon": 22.213301}, "name": "Kra\u015bnik"}, {"country": "PL", "id": 7531734, "coord": {"lat": 52.016102, "lon": 18.511499}, "name": "Turek"}, {"country": "PL", "id": 3085941, "coord": {"lat": 52.8568, "lon": 19.66913}, "name": "Sierpc"}, {"country": "PL", "id": 3087418, "coord": {"lat": 50.400261, "lon": 18.902321}, "name": "Radzionkow"}, {"country": "PL", "id": 3096003, "coord": {"lat": 50.972809, "lon": 18.218161}, "name": "Kluczbork"}, {"country": "PL", "id": 7531378, "coord": {"lat": 53.12973, "lon": 18.0383}, "name": "Bydgoszcz"}, {"country": "PS", "id": 281109, "coord": {"lat": 31.44861, "lon": 34.392502}, "name": "An Nusayrat"}, {"country": "PT", "id": 2267226, "coord": {"lat": 37.10202, "lon": -8.67422}, "name": "Lagos"}, {"country": "PT", "id": 2739849, "coord": {"lat": 41.533329, "lon": -8.78333}, "name": "Esposende"}, {"country": "PY", "id": 3437665, "coord": {"lat": -25.366671, "lon": -57.599998}, "name": "Nemby"}, {"country": "RE", "id": 6690295, "coord": {"lat": -20.866671, "lon": 55.466671}, "name": "Saint-Denis"}, {"country": "RS", "id": 793111, "coord": {"lat": 44.306938, "lon": 20.559999}, "name": "Arangelovac"}, {"country": "RU", "id": 563551, "coord": {"lat": 43.212219, "lon": 44.823059}, "name": "Ekazhevo"}, {"country": "SA", "id": 102451, "coord": {"lat": 16.59601, "lon": 42.944351}, "name": "Samitah"}, {"country": "SD", "id": 372386, "coord": {"lat": 14.0361, "lon": 33.1712}, "name": "Kinana"}, {"country": "SD", "id": 379416, "coord": {"lat": 13.41667, "lon": 34.633331}, "name": "Al Hawatah"}, {"country": "SE", "id": 2684394, "coord": {"lat": 57.73333, "lon": 12.11667}, "name": "Partille Kommun"}, {"country": "SN", "id": 2250805, "coord": {"lat": 14.1825, "lon": -16.25333}, "name": "Kaolack"}, {"country": "SO", "id": 65785, "coord": {"lat": 2.1381, "lon": 45.121201}, "name": "Afgooye"}, {"country": "SY", "id": 163270, "coord": {"lat": 35.26548, "lon": 36.710621}, "name": "Tayyibat al Imam"}, {"country": "SY", "id": 170892, "coord": {"lat": 33.458969, "lon": 36.237419}, "name": "Darayya"}, {"country": "TG", "id": 2367164, "coord": {"lat": 10.86389, "lon": 0.205}, "name": "Dapaong"}, {"country": "TH", "id": 1610468, "coord": {"lat": 16.5, "lon": 103.5}, "name": "Changwat Kalasin"}, {"country": "TH", "id": 1607083, "coord": {"lat": 6.29678, "lon": 101.728439}, "name": "Ra-ngae"}, {"country": "TH", "id": 1610538, "coord": {"lat": 13.95114, "lon": 101.71769}, "name": "Kabin Buri"}, {"country": "TM", "id": 1218666, "coord": {"lat": 37, "lon": 62.5}, "name": "Mary Wela\u00fdaty"}, {"country": "TN", "id": 2473499, "coord": {"lat": 36.674461, "lon": 10.15633}, "name": "La Mohammedia"}, {"country": "TR", "id": 301827, "coord": {"lat": 37.92448, "lon": 28.925159}, "name": "Saraykoy"}, {"country": "TR", "id": 312134, "coord": {"lat": 37.586861, "lon": 38.955051}, "name": "Hilvan"}, {"country": "TW", "id": 1670029, "coord": {"lat": 25.014271, "lon": 121.467194}, "name": "Banqiao"}, {"country": "UA", "id": 700918, "coord": {"lat": 48.44598, "lon": 27.798201}, "name": "Mohyliv-Podilskyy"}, {"country": "US", "id": 4053062, "coord": {"lat": 33.750381, "lon": -85.849968}, "name": "Calhoun County"}, {"country": "US", "id": 4181936, "coord": {"lat": 33.754829, "lon": -84.267418}, "name": "Belvedere Park"}, {"country": "US", "id": 4303436, "coord": {"lat": 37.77422, "lon": -87.113327}, "name": "Owensboro"}, {"country": "US", "id": 4406282, "coord": {"lat": 37.951431, "lon": -91.771271}, "name": "Rolla"}, {"country": "US", "id": 4493316, "coord": {"lat": 35.782639, "lon": -80.887299}, "name": "Statesville"}, {"country": "US", "id": 4619800, "coord": {"lat": 36.034519, "lon": -89.385628}, "name": "Dyersburg"}, {"country": "US", "id": 4693150, "coord": {"lat": 31.43516, "lon": -97.743912}, "name": "Gatesville"}, {"country": "US", "id": 4846960, "coord": {"lat": 41.72971, "lon": -93.605766}, "name": "Ankeny"}, {"country": "US", "id": 4991735, "coord": {"lat": 42.468369, "lon": -82.955467}, "name": "Eastpointe"}, {"country": "US", "id": 5116303, "coord": {"lat": 42.96339, "lon": -78.803917}, "name": "Eggertsville"}, {"country": "US", "id": 5245193, "coord": {"lat": 43.457771, "lon": -88.837334}, "name": "Beaver Dam"}, {"country": "US", "id": 5338122, "coord": {"lat": 36.82523, "lon": -119.702919}, "name": "Clovis"}, {"country": "US", "id": 5392090, "coord": {"lat": 33.783909, "lon": -116.958641}, "name": "San Jacinto"}, {"country": "US", "id": 5504003, "coord": {"lat": 39.607971, "lon": -119.251831}, "name": "Fernley"}, {"country": "US", "id": 5810490, "coord": {"lat": 47.644539, "lon": -122.69487}, "name": "Silverdale"}, {"country": "VE", "id": 3630297, "coord": {"lat": 10.47226, "lon": -66.801552}, "name": "Petare"}, {"country": "RU", "id": 1506834, "coord": {"lat": 56.201111, "lon": 95.461113}, "name": "Filimonovo"}, {"country": "RU", "id": 1508427, "coord": {"lat": 51.3978, "lon": 83.559799}, "name": "Charyshskoye"}, {"country": "RU", "id": 1509958, "coord": {"lat": 53.183609, "lon": 83.876389}, "name": "Bobrovka"}, {"country": "RU", "id": 1510697, "coord": {"lat": 57.398109, "lon": 63.76841}, "name": "Baykalovo"}, {"country": "AF", "id": 1120500, "coord": {"lat": 33.323608, "lon": 68.439438}, "name": "Miray"}, {"country": "AF", "id": 1122408, "coord": {"lat": 34.594311, "lon": 61.268951}, "name": "Tir Pul"}, {"country": "AF", "id": 1124621, "coord": {"lat": 35.005531, "lon": 68.855782}, "name": "Siyahgird"}, {"country": "AF", "id": 1126266, "coord": {"lat": 36.135288, "lon": 65.829697}, "name": "Sayad"}, {"country": "AF", "id": 1127667, "coord": {"lat": 34.40744, "lon": 70.639374}, "name": "Sangar Saray"}, {"country": "AF", "id": 1129678, "coord": {"lat": 34.940231, "lon": 61.77589}, "name": "Qarah Bagh"}, {"country": "AF", "id": 1130997, "coord": {"lat": 31.557199, "lon": 65.434303}, "name": "Pashmul"}, {"country": "AF", "id": 1131833, "coord": {"lat": 33.721779, "lon": 66.130234}, "name": "Nili"}, {"country": "AF", "id": 1132604, "coord": {"lat": 32.445648, "lon": 64.744858}, "name": "Musa Qalah"}, {"country": "AF", "id": 1133657, "coord": {"lat": 38.408562, "lon": 71.038383}, "name": "Maymay"}, {"country": "AF", "id": 1135625, "coord": {"lat": 34.871101, "lon": 62.547619}, "name": "Kushk-e Kuhnah"}, {"country": "AF", "id": 1136737, "coord": {"lat": 35.428982, "lon": 69.734818}, "name": "Khinj"}, {"country": "AF", "id": 1138321, "coord": {"lat": 34.953602, "lon": 70.778969}, "name": "Kanday"}, {"country": "AF", "id": 1140341, "coord": {"lat": 35.109219, "lon": 69.433411}, "name": "Haji Khel"}, {"country": "AF", "id": 1142234, "coord": {"lat": 33.78529, "lon": 63.247349}, "name": "Qalah-ye Farsi"}, {"country": "AF", "id": 1142852, "coord": {"lat": 32.142368, "lon": 61.446899}, "name": "Du Qalah"}, {"country": "AF", "id": 1143838, "coord": {"lat": 37.133331, "lon": 69.166672}, "name": "Dasht-e Archi"}, {"country": "AF", "id": 1145124, "coord": {"lat": 32.015831, "lon": 65.107208}, "name": "Chinar"}, {"country": "AF", "id": 1145897, "coord": {"lat": 37.397732, "lon": 69.814636}, "name": "Chah Ab"}, {"country": "AF", "id": 1148268, "coord": {"lat": 36.683331, "lon": 71.533333}, "name": "Ashkasham"}, {"country": "AF", "id": 1149348, "coord": {"lat": 34.200111, "lon": 70.278061}, "name": "Pachir wa Agam"}, {"country": "AF", "id": 1422873, "coord": {"lat": 35.99474, "lon": 68.050812}, "name": "Langar"}, {"country": "AF", "id": 1453103, "coord": {"lat": 34.412041, "lon": 70.296341}, "name": "Sultanpur-e Ulya"}, {"country": "AF", "id": 1469237, "coord": {"lat": 34.399799, "lon": 69.166786}, "name": "Qalah-ye Naim"}, {"country": "AL", "id": 781919, "coord": {"lat": 41.066669, "lon": 20.53528}, "name": "Perrenjas-Fshat"}, {"country": "AL", "id": 783606, "coord": {"lat": 40.627499, "lon": 20.99}, "name": "Bilisht"}, {"country": "AL", "id": 3184290, "coord": {"lat": 40.737499, "lon": 19.702221}, "name": "Roskovec"}, {"country": "AM", "id": 174704, "coord": {"lat": 39.821201, "lon": 45.04063}, "name": "Zangakatun"}, {"country": "AM", "id": 174769, "coord": {"lat": 39.436699, "lon": 46.317871}, "name": "Shinuhayr"}, {"country": "AM", "id": 174918, "coord": {"lat": 39.270592, "lon": 46.357201}, "name": "Dzorastan"}, {"country": "AM", "id": 174983, "coord": {"lat": 39.76532, "lon": 44.809021}, "name": "Armash"}, {"country": "AM", "id": 616039, "coord": {"lat": 40.091091, "lon": 44.39209}, "name": "Zorak"}, {"country": "AM", "id": 616100, "coord": {"lat": 39.990459, "lon": 44.585461}, "name": "Verin Artashat"}, {"country": "AM", "id": 616139, "coord": {"lat": 40.630291, "lon": 44.957378}, "name": "Tsovagyugh"}, {"country": "AM", "id": 616211, "coord": {"lat": 40.46439, "lon": 44.707958}, "name": "Solak"}, {"country": "AM", "id": 616278, "coord": {"lat": 40.185162, "lon": 44.243309}, "name": "Samaghar"}, {"country": "AM", "id": 616328, "coord": {"lat": 40.132061, "lon": 44.009689}, "name": "Hoktember"}, {"country": "AM", "id": 616383, "coord": {"lat": 40.86694, "lon": 45.341789}, "name": "Navur"}, {"country": "AM", "id": 616412, "coord": {"lat": 40.643761, "lon": 44.05653}, "name": "Mets Mantash"}, {"country": "AM", "id": 616456, "coord": {"lat": 40.076382, "lon": 45.25507}, "name": "Madina"}, {"country": "AM", "id": 616522, "coord": {"lat": 40.275341, "lon": 44.660358}, "name": "Kotayk"}, {"country": "AM", "id": 616632, "coord": {"lat": 40.121658, "lon": 44.375229}, "name": "Hayanist"}, {"country": "AM", "id": 616682, "coord": {"lat": 40.144932, "lon": 44.430538}, "name": "Geghanist"}, {"country": "AM", "id": 616735, "coord": {"lat": 40.043911, "lon": 44.023338}, "name": "Janfida"}, {"country": "AM", "id": 616824, "coord": {"lat": 40.253731, "lon": 44.604259}, "name": "Balahovit"}, {"country": "AM", "id": 616888, "coord": {"lat": 40.298481, "lon": 43.762199}, "name": "Arteni"}, {"country": "AM", "id": 616931, "coord": {"lat": 41.163509, "lon": 44.87632}, "name": "Archis"}, {"country": "AM", "id": 617019, "coord": {"lat": 40.329319, "lon": 44.070332}, "name": "Agarak"}, {"country": "AM", "id": 823797, "coord": {"lat": 40.23539, "lon": 44.694592}, "name": "Kamaris"}, {"country": "AM", "id": 859714, "coord": {"lat": 40.187012, "lon": 45.19212}, "name": "Vardadzor"}, {"country": "AM", "id": 866134, "coord": {"lat": 40.025101, "lon": 44.45129}, "name": "Hovtashen"}, {"country": "AO", "id": 3346821, "coord": {"lat": -17.066669, "lon": 15.73333}, "name": "Ondjiva"}, {"country": "AR", "id": 3427535, "coord": {"lat": -27.41667, "lon": -54.666672}, "name": "Departamento de Veinticinco de Mayo"}, {"country": "AR", "id": 3428453, "coord": {"lat": -30.90004, "lon": -57.931622}, "name": "Santa Ana"}, {"country": "AR", "id": 3429764, "coord": {"lat": -25.91641, "lon": -54.620892}, "name": "Puerto Libertad"}, {"country": "AR", "id": 3430182, "coord": {"lat": -26.700001, "lon": -59.133331}, "name": "Pampa Almiron"}, {"country": "AR", "id": 3431161, "coord": {"lat": -27.5576, "lon": -55.076832}, "name": "Los Helechos"}, {"country": "AR", "id": 3432122, "coord": {"lat": -27.159981, "lon": -59.38604}, "name": "Lapachito"}, {"country": "AR", "id": 3433567, "coord": {"lat": -26.487049, "lon": -58.311981}, "name": "Herradura"}, {"country": "AR", "id": 3433842, "coord": {"lat": -28.185141, "lon": -55.639469}, "name": "Garruchos"}, {"country": "AR", "id": 3435269, "coord": {"lat": -28.33333, "lon": -58}, "name": "Departamento de Concepci\u00f3n"}, {"country": "AR", "id": 3435453, "coord": {"lat": -27.633329, "lon": -59.900002}, "name": "Charadai"}, {"country": "AR", "id": 3436205, "coord": {"lat": -28.0616, "lon": -55.677971}, "name": "Azara"}, {"country": "AR", "id": 3832560, "coord": {"lat": -28.75964, "lon": -68.206917}, "name": "Vinchina"}, {"country": "AR", "id": 3832795, "coord": {"lat": -29.28356, "lon": -67.022491}, "name": "Villa Bustos"}, {"country": "AR", "id": 3834542, "coord": {"lat": -36.26429, "lon": -65.510178}, "name": "Telen"}, {"country": "AR", "id": 3836284, "coord": {"lat": -33.176579, "lon": -63.28281}, "name": "Santa Eufemia"}, {"country": "AR", "id": 3837893, "coord": {"lat": -31.17761, "lon": -65.102448}, "name": "San Carlos"}, {"country": "AR", "id": 3838460, "coord": {"lat": -31.663, "lon": -63.045052}, "name": "Sacanta"}, {"country": "AR", "id": 3841143, "coord": {"lat": -41.118809, "lon": -70.729141}, "name": "Pilcaniyeu"}, {"country": "AR", "id": 3842882, "coord": {"lat": -31.66914, "lon": -68.390228}, "name": "Nueve de Julio"}, {"country": "AR", "id": 3845398, "coord": {"lat": -32.375702, "lon": -65.929604}, "name": "Lujan"}, {"country": "AR", "id": 3847516, "coord": {"lat": -27.109961, "lon": -60.587189}, "name": "La Tigra"}, {"country": "AR", "id": 3850888, "coord": {"lat": -24.25391, "lon": -61.244659}, "name": "Laguna Yema"}, {"country": "AR", "id": 3853966, "coord": {"lat": -23.08333, "lon": -65.333328}, "name": "Departamento de Humahuaca"}, {"country": "AR", "id": 3855115, "coord": {"lat": -23.216669, "lon": -62.299999}, "name": "General Enrique Mosconi"}, {"country": "AR", "id": 3857879, "coord": {"lat": -37.645222, "lon": -70.580063}, "name": "El Huecu"}, {"country": "AR", "id": 3860206, "coord": {"lat": -39.183331, "lon": -65.98333}, "name": "Coronel Belisle"}, {"country": "AR", "id": 3862772, "coord": {"lat": -28.761049, "lon": -66.05024}, "name": "Capayan"}, {"country": "AR", "id": 3863663, "coord": {"lat": -37.052219, "lon": -69.877129}, "name": "Buta Ranquil"}, {"country": "AR", "id": 3865580, "coord": {"lat": -35.63895, "lon": -64.356209}, "name": "Arata"}, {"country": "AR", "id": 3866353, "coord": {"lat": -33.60643, "lon": -62.623039}, "name": "Alejo Ledesma"}, {"country": "AS", "id": 5880891, "coord": {"lat": -14.35889, "lon": -170.734726}, "name": "Vaitogi"}, {"country": "AT", "id": 2607522, "coord": {"lat": 46.98333, "lon": 15.61667}, "name": "Edelstauden"}, {"country": "AT", "id": 7871595, "coord": {"lat": 47.974201, "lon": 16.9981}, "name": "Zurndorf"}, {"country": "AT", "id": 7873067, "coord": {"lat": 47.844341, "lon": 16.35323}, "name": "Zillingdorf"}, {"country": "AT", "id": 7871772, "coord": {"lat": 48.688271, "lon": 15.96189}, "name": "Zellerndorf"}, {"country": "AT", "id": 2760636, "coord": {"lat": 47.900002, "lon": 13.31667}, "name": "Zell am Moos"}, {"country": "AT", "id": 2760770, "coord": {"lat": 47.933331, "lon": 14.88333}, "name": "Ybbsitz"}, {"country": "AT", "id": 7871545, "coord": {"lat": 47.797291, "lon": 16.494101}, "name": "Wulkaprodersdorf"}, {"country": "AT", "id": 2760887, "coord": {"lat": 48.383331, "lon": 16.51667}, "name": "Wolkersdorf"}, {"country": "AT", "id": 7873480, "coord": {"lat": 46.844742, "lon": 15.67025}, "name": "Wolfsberg im Schwarzautal"}, {"country": "AT", "id": 2761039, "coord": {"lat": 46.873611, "lon": 12.87472}, "name": "Winklern"}, {"country": "AT", "id": 2761149, "coord": {"lat": 47.70295, "lon": 16.03334}, "name": "Wimpassing im Schwarzatale"}, {"country": "AT", "id": 2761229, "coord": {"lat": 47.316669, "lon": 11.01667}, "name": "Wildermieming"}, {"country": "AT", "id": 2761306, "coord": {"lat": 47.73333, "lon": 16.33333}, "name": "Wiesen"}, {"country": "AT", "id": 2761457, "coord": {"lat": 47.433331, "lon": 12.21667}, "name": "Westendorf"}, {"country": "AT", "id": 2761479, "coord": {"lat": 47.466671, "lon": 13.18333}, "name": "Werfen"}, {"country": "AT", "id": 2775515, "coord": {"lat": 48.75, "lon": 15.7}, "name": "Politischer Bezirk Horn"}, {"country": "AT", "id": 2761571, "coord": {"lat": 47.150002, "lon": 14.73333}, "name": "Weisskirchen in Steiermark"}, {"country": "AT", "id": 7872683, "coord": {"lat": 47.304329, "lon": 9.65571}, "name": "Weiler"}, {"country": "AT", "id": 7871570, "coord": {"lat": 46.961811, "lon": 16.19335}, "name": "Weichselbaum"}, {"country": "AT", "id": 7872671, "coord": {"lat": 47.260078, "lon": 10.16332}, "name": "Warth"}, {"country": "AT", "id": 2761976, "coord": {"lat": 48.13562, "lon": 13.42701}, "name": "Waldzell"}, {"country": "AT", "id": 7873091, "coord": {"lat": 48.534229, "lon": 15.27678}, "name": "Waldhausen"}, {"country": "AT", "id": 7873643, "coord": {"lat": 47.586498, "lon": 12.57701}, "name": "Waidring"}, {"country": "AT", "id": 7872431, "coord": {"lat": 47.503189, "lon": 14.98169}, "name": "Vordernberg"}, {"country": "AT", "id": 7872554, "coord": {"lat": 47.23695, "lon": 11.5716}, "name": "Volders"}, {"country": "AT", "id": 7873752, "coord": {"lat": 47.308769, "lon": 9.7222}, "name": "Viktorsberg"}, {"country": "AT", "id": 2762572, "coord": {"lat": 47.25, "lon": 16.23333}, "name": "Unterwart"}, {"country": "AT", "id": 2762843, "coord": {"lat": 47.383331, "lon": 16.316669}, "name": "Unterkohlstatten"}, {"country": "AT", "id": 7873388, "coord": {"lat": 46.87431, "lon": 15.77215}, "name": "Unterauersbach"}, {"country": "AT", "id": 7872638, "coord": {"lat": 47.315022, "lon": 11.85193}, "name": "Uderns"}, {"country": "AT", "id": 7872937, "coord": {"lat": 47.917759, "lon": 15.50063}, "name": "T\u00fcrnitz"}, {"country": "AT", "id": 2763300, "coord": {"lat": 47.01667, "lon": 16.299999}, "name": "Tschanigraben"}, {"country": "AT", "id": 2763343, "coord": {"lat": 46.816109, "lon": 12.78972}, "name": "Tristach"}, {"country": "AT", "id": 2763406, "coord": {"lat": 47.813499, "lon": 16.5576}, "name": "Trausdorf an der Wulka"}, {"country": "AT", "id": 2763476, "coord": {"lat": 46.825001, "lon": 15.15694}, "name": "Trahutten"}, {"country": "AT", "id": 2763614, "coord": {"lat": 47.883331, "lon": 13.35}, "name": "Tiefgraben"}, {"country": "AT", "id": 2763711, "coord": {"lat": 48.854889, "lon": 15.28902}, "name": "Thaya"}, {"country": "AT", "id": 7872637, "coord": {"lat": 47.330448, "lon": 11.63384}, "name": "Terfens"}, {"country": "AT", "id": 7872844, "coord": {"lat": 47.947392, "lon": 16.32896}, "name": "Tattendorf"}, {"country": "AT", "id": 7872670, "coord": {"lat": 47.524052, "lon": 9.91429}, "name": "Sulzberg"}, {"country": "AT", "id": 7873330, "coord": {"lat": 47.29673, "lon": 12.52414}, "name": "Stuhlfelden"}, {"country": "AT", "id": 2764138, "coord": {"lat": 48.133331, "lon": 14.63333}, "name": "Strengberg"}, {"country": "AT", "id": 7872606, "coord": {"lat": 46.756168, "lon": 12.49144}, "name": "Strassen"}, {"country": "AT", "id": 7872689, "coord": {"lat": 47.894299, "lon": 16.54323}, "name": "Stotzing"}, {"country": "AT", "id": 7871667, "coord": {"lat": 46.718849, "lon": 13.51562}, "name": "Stockenboi"}, {"country": "AT", "id": 7872813, "coord": {"lat": 46.785751, "lon": 14.10409}, "name": "Steuerberg"}, {"country": "AT", "id": 7872175, "coord": {"lat": 47.812969, "lon": 13.57722}, "name": "Steinbach am Attersee"}, {"country": "AT", "id": 2764605, "coord": {"lat": 47.243931, "lon": 10.29436}, "name": "Steeg"}, {"country": "AT", "id": 7873441, "coord": {"lat": 47.347149, "lon": 15.92913}, "name": "Stambach"}, {"country": "AT", "id": 7873386, "coord": {"lat": 46.821232, "lon": 15.89827}, "name": "Stainz bei Straden"}, {"country": "AT", "id": 7873529, "coord": {"lat": 47.042309, "lon": 13.995}, "name": "Stadl an der Mur"}, {"country": "AT", "id": 7872826, "coord": {"lat": 48.000278, "lon": 14.77378}, "name": "Sonntagberg"}, {"country": "AT", "id": 2764970, "coord": {"lat": 47.033329, "lon": 16.01667}, "name": "Sochau"}, {"country": "AT", "id": 7873726, "coord": {"lat": 47.069469, "lon": 10.05408}, "name": "Silbertal"}, {"country": "AT", "id": 2765092, "coord": {"lat": 47.650002, "lon": 16.366671}, "name": "Sieggraben"}, {"country": "AT", "id": 7873001, "coord": {"lat": 47.642239, "lon": 15.8241}, "name": "Semmering"}, {"country": "AT", "id": 2765257, "coord": {"lat": 47.900002, "lon": 13.13333}, "name": "Seekirchen am Wallersee"}, {"country": "AT", "id": 2765331, "coord": {"lat": 47.083328, "lon": 10.46667}, "name": "See"}, {"country": "AT", "id": 2765390, "coord": {"lat": 47.351688, "lon": 11.71014}, "name": "Schwaz"}, {"country": "AT", "id": 2765488, "coord": {"lat": 47.812229, "lon": 15.70581}, "name": "Schwarzau im Gebirge"}, {"country": "AT", "id": 2765558, "coord": {"lat": 47.852329, "lon": 16.623341}, "name": "Schutzen am Gebirge"}, {"country": "AT", "id": 7873000, "coord": {"lat": 47.63586, "lon": 15.86704}, "name": "Schottwien"}, {"country": "AT", "id": 7872479, "coord": {"lat": 47.22633, "lon": 14.08206}, "name": "Sch\u00f6der"}, {"country": "AT", "id": 7872682, "coord": {"lat": 47.20591, "lon": 9.69786}, "name": "Schlins"}, {"country": "AT", "id": 7873246, "coord": {"lat": 48.508121, "lon": 14.35647}, "name": "Schenkenfelden"}, {"country": "AT", "id": 2766121, "coord": {"lat": 47.709728, "lon": 16.50979}, "name": "Schattendorf"}, {"country": "AT", "id": 2766233, "coord": {"lat": 47.26667, "lon": 16.433331}, "name": "Schachendorf"}, {"country": "AT", "id": 7871811, "coord": {"lat": 48.035229, "lon": 15.66984}, "name": "Sankt Veit an der G\u00f6lsen"}, {"country": "AT", "id": 7873384, "coord": {"lat": 46.91663, "lon": 15.71625}, "name": "Sankt Stefan im Rosental"}, {"country": "AT", "id": 7872429, "coord": {"lat": 47.394371, "lon": 15.04061}, "name": "Sankt Peter-Freienstein"}, {"country": "AT", "id": 2766508, "coord": {"lat": 46.756111, "lon": 15.29722}, "name": "Sankt Martin im Sulmtal"}, {"country": "AT", "id": 7871892, "coord": {"lat": 48.15461, "lon": 15.49526}, "name": "Sankt Margarethen an der Sierning"}, {"country": "AT", "id": 2766576, "coord": {"lat": 47.48333, "lon": 15.36667}, "name": "Sankt Lorenzen im Murztal"},