[{"country": "JP", "state": "", "id": 1847947, "coord": {"lat": 33.73333, "lon": 135.983337}, "name": "Shing\u016b"}, {"country": "JP", "state": "", "id": 1847963, "coord": {"lat": 35.438889, "lon": 139.359726}, "name": "Atsugi"}, {"country": "JP", "state": "", "id": 1847966, "coord": {"lat": 34.633331, "lon": 134.983337}, "name": "Akashi"}, {"country": "JP", "state": "", "id": 1847968, "coord": {"lat": 35.291672, "lon": 139.585556}, "name": "Zushi"}, {"country": "JP", "state": "", "id": 1847979, "coord": {"lat": 34.98333, "lon": 135.899994}, "name": "Awazuch\u014d"}, {"country": "JP", "state": "", "id": 1847996, "coord": {"lat": 37.450001, "lon": 138.850006}, "name": "Za\u014dmachi"}, {"country": "JP", "state": "", "id": 1848002, "coord": {"lat": 26.224171, "lon": 127.301109}, "name": "Zamami"}, {"country": "JP", "state": "", "id": 1848004, "coord": {"lat": 35.488892, "lon": 139.388611}, "name": "Zama"}, {"country": "JP", "state": "", "id": 1848015, "coord": {"lat": 36.933331, "lon": 138.816666}, "name": "Yuzawa"}, {"country": "JP", "state": "", "id": 1848016, "coord": {"lat": 39.0, "lon": 139.916672}, "name": "Yuza"}, {"country": "JP", "state": "", "id": 1848028, "coord": {"lat": 33.383331, "lon": 132.916672}, "name": "Yusuhara"}, {"country": "JP", "state": "", "id": 1848040, "coord": {"lat": 35.666672, "lon": 139.766663}, "name": "Y\u016brakuch\u014d"}, {"country": "JP", "state": "", "id": 1848049, "coord": {"lat": 35.48333, "lon": 133.75}, "name": "Yura"}, {"country": "JP", "state": "", "id": 1848087, "coord": {"lat": 33.728729, "lon": 130.983002}, "name": "Yukuhashi"}, {"country": "JP", "state": "", "id": 1848096, "coord": {"lat": 36.299999, "lon": 139.883331}, "name": "Y\u016bki"}, {"country": "JP", "state": "", "id": 1848113, "coord": {"lat": 35.150002, "lon": 139.066666}, "name": "Yugawara"}, {"country": "JP", "state": "", "id": 1848119, "coord": {"lat": 36.033329, "lon": 138.233337}, "name": "Yugawa"}, {"country": "JP", "state": "", "id": 1848131, "coord": {"lat": 34.033329, "lon": 135.183334}, "name": "Yuasa"}, {"country": "JP", "state": "", "id": 1848169, "coord": {"lat": 34.396111, "lon": 135.857681}, "name": "Yoshino-ch\u014d"}, {"country": "JP", "state": "", "id": 1848188, "coord": {"lat": 35.885281, "lon": 139.839447}, "name": "Yoshikawa"}, {"country": "JP", "state": "", "id": 1848193, "coord": {"lat": 38.049999, "lon": 138.399994}, "name": "Yoshii"}, {"country": "JP", "state": "", "id": 1848194, "coord": {"lat": 36.25, "lon": 138.983337}, "name": "Yoshii"}, {"country": "JP", "state": "", "id": 1848200, "coord": {"lat": 35.987041, "lon": 136.172287}, "name": "Yoshie"}, {"country": "JP", "state": "", "id": 1848210, "coord": {"lat": 37.683331, "lon": 138.883331}, "name": "Yoshida-kasugach\u014d"}, {"country": "JP", "state": "", "id": 1848211, "coord": {"lat": 36.666672, "lon": 138.216675}, "name": "Yoshida"}, {"country": "JP", "state": "", "id": 1848230, "coord": {"lat": 37.316669, "lon": 136.966675}, "name": "Miimachi-yoromi"}, {"country": "JP", "state": "", "id": 1848243, "coord": {"lat": 36.116669, "lon": 139.199997}, "name": "Yorii"}, {"country": "JP", "state": "", "id": 1848254, "coord": {"lat": 35.883331, "lon": 139.633331}, "name": "Yono"}, {"country": "JP", "state": "", "id": 1848266, "coord": {"lat": 24.466669, "lon": 123.0}, "name": "Yonakuni"}, {"country": "JP", "state": "", "id": 1848277, "coord": {"lat": 35.433331, "lon": 133.333328}, "name": "Yonago"}, {"country": "JP", "state": "", "id": 1848281, "coord": {"lat": 26.201389, "lon": 127.753891}, "name": "Yonabaru"}, {"country": "JP", "state": "", "id": 1848305, "coord": {"lat": 35.75, "lon": 139.383331}, "name": "Yokota"}, {"country": "JP", "state": "", "id": 1848313, "coord": {"lat": 35.283611, "lon": 139.667221}, "name": "Yokosuka"}, {"country": "JP", "state": "", "id": 1848354, "coord": {"lat": 35.447781, "lon": 139.642502}, "name": "Yokohama"}, {"country": "JP", "state": "", "id": 1848364, "coord": {"lat": 34.400002, "lon": 132.899994}, "name": "Yokodaid\u014d"}, {"country": "JP", "state": "", "id": 1848373, "coord": {"lat": 34.966671, "lon": 136.616669}, "name": "Yokkaichi"}, {"country": "JP", "state": "", "id": 1848382, "coord": {"lat": 35.116261, "lon": 136.197678}, "name": "Youkaichi"}, {"country": "JP", "state": "", "id": 1848409, "coord": {"lat": 34.5, "lon": 133.766663}, "name": "Yobimatsu"}, {"country": "JP", "state": "", "id": 1848439, "coord": {"lat": 34.87009, "lon": 135.702698}, "name": "Yawata"}, {"country": "JP", "state": "", "id": 1848440, "coord": {"lat": 35.616669, "lon": 139.116669}, "name": "Yatsuzawa"}, {"country": "JP", "state": "", "id": 1848445, "coord": {"lat": 32.5, "lon": 130.600006}, "name": "Honmachi"}, {"country": "JP", "state": "", "id": 1848447, "coord": {"lat": 36.566669, "lon": 137.133331}, "name": "Yatsuomachi-higashikumisaka"}, {"country": "JP", "state": "", "id": 1848482, "coord": {"lat": 35.433331, "lon": 133.25}, "name": "Yasugich\u014d"}, {"country": "JP", "state": "", "id": 1848489, "coord": {"lat": 35.068008, "lon": 136.02327}, "name": "Yasu-shi"}, {"country": "JP", "state": "", "id": 1848498, "coord": {"lat": 34.916672, "lon": 134.966675}, "name": "Yashiro"}, {"country": "JP", "state": "", "id": 1848499, "coord": {"lat": 35.822552, "lon": 139.83905}, "name": "Yashio"}, {"country": "JP", "state": "", "id": 1848518, "coord": {"lat": 35.466671, "lon": 137.149994}, "name": "Yaotsu"}, {"country": "JP", "state": "", "id": 1848522, "coord": {"lat": 34.616669, "lon": 135.600006}, "name": "Yao"}, {"country": "JP", "state": "", "id": 1848528, "coord": {"lat": 34.066669, "lon": 136.199997}, "name": "Yanohama"}, {"country": "JP", "state": "", "id": 1848550, "coord": {"lat": 33.966671, "lon": 132.116669}, "name": "Yanai"}, {"country": "JP", "state": "", "id": 1848573, "coord": {"lat": 33.166672, "lon": 130.399994}, "name": "Yanagawa"}, {"country": "JP", "state": "", "id": 1848575, "coord": {"lat": 36.299999, "lon": 139.483337}, "name": "Yanadach\u014d"}, {"country": "JP", "state": "", "id": 1848593, "coord": {"lat": 34.51667, "lon": 135.75}, "name": "Yamato-Takada"}, {"country": "JP", "state": "", "id": 1848598, "coord": {"lat": 35.46722, "lon": 139.456116}, "name": "Yamatominami"}, {"country": "JP", "state": "", "id": 1848612, "coord": {"lat": 36.150002, "lon": 139.816666}, "name": "Yamata"}, {"country": "JP", "state": "", "id": 1848633, "coord": {"lat": 35.0, "lon": 134.550003}, "name": "Yamazakich\u014d-nakabirose"}, {"country": "JP", "state": "", "id": 1848649, "coord": {"lat": 35.61602, "lon": 138.608002}, "name": "Yamanashi"}, {"country": "JP", "state": "", "id": 1848667, "coord": {"lat": 35.35667, "lon": 139.073334}, "name": "Yamakita"}, {"country": "JP", "state": "", "id": 1848681, "coord": {"lat": 34.206081, "lon": 131.570465}, "name": "Yamaguchi"}, {"country": "JP", "state": "", "id": 1848689, "coord": {"lat": 34.185829, "lon": 131.47139}, "name": "Yamaguchi"}, {"country": "JP", "state": "", "id": 1848705, "coord": {"lat": 33.01667, "lon": 130.683334}, "name": "Yamaga"}, {"country": "JP", "state": "", "id": 1848706, "coord": {"lat": 33.466671, "lon": 130.566666}, "name": "Yamae"}, {"country": "JP", "state": "", "id": 1848739, "coord": {"lat": 33.583328, "lon": 130.399994}, "name": "Yakuin-Horibata"}, {"country": "JP", "state": "", "id": 1848764, "coord": {"lat": 34.616669, "lon": 133.583328}, "name": "Yakage"}, {"country": "JP", "state": "", "id": 1848774, "coord": {"lat": 34.866669, "lon": 138.333328}, "name": "Yaizu"}, {"country": "JP", "state": "", "id": 1848776, "coord": {"lat": 36.799999, "lon": 139.933334}, "name": "Yaita"}, {"country": "JP", "state": "", "id": 1848841, "coord": {"lat": 34.799999, "lon": 134.466675}, "name": "Yabutani"}, {"country": "JP", "state": "", "id": 1848848, "coord": {"lat": 35.408329, "lon": 139.467224}, "name": "Yabuhana"}, {"country": "JP", "state": "", "id": 1848852, "coord": {"lat": 35.383331, "lon": 134.816666}, "name": "Yabu"}, {"country": "JP", "state": "", "id": 1848899, "coord": {"lat": 34.916672, "lon": 139.0}, "name": "Warabo"}, {"country": "JP", "state": "", "id": 1848903, "coord": {"lat": 35.826389, "lon": 139.704437}, "name": "Warabi"}, {"country": "JP", "state": "", "id": 1848906, "coord": {"lat": 28.41667, "lon": 129.699997}, "name": "Wano"}, {"country": "JP", "state": "", "id": 1848919, "coord": {"lat": 34.700001, "lon": 135.216675}, "name": "Wakinohamach\u014d"}, {"country": "JP", "state": "", "id": 1848933, "coord": {"lat": 34.066669, "lon": 134.149994}, "name": "Wakimachi"}, {"country": "JP", "state": "", "id": 1848935, "coord": {"lat": 34.799999, "lon": 134.133331}, "name": "Wake"}, {"country": "JP", "state": "", "id": 1848938, "coord": {"lat": 33.914581, "lon": 135.511124}, "name": "Wakayama"}, {"country": "JP", "state": "", "id": 1848949, "coord": {"lat": 35.333328, "lon": 134.399994}, "name": "Wakasa"}, {"country": "JP", "state": "", "id": 1848976, "coord": {"lat": 37.400002, "lon": 136.899994}, "name": "Wajima"}, {"country": "JP", "state": "", "id": 1848988, "coord": {"lat": 27.383329, "lon": 128.649994}, "name": "Wadomari"}, {"country": "JP", "state": "", "id": 1848991, "coord": {"lat": 35.316669, "lon": 134.866669}, "name": "Wadayama"}, {"country": "JP", "state": "", "id": 1849053, "coord": {"lat": 36.56583, "lon": 139.883606}, "name": "Utsunomiya"}, {"country": "JP", "state": "", "id": 1849069, "coord": {"lat": 32.683331, "lon": 130.666672}, "name": "Uto"}, {"country": "JP", "state": "", "id": 1849073, "coord": {"lat": 34.299999, "lon": 133.816666}, "name": "Utazu"}, {"country": "JP", "state": "", "id": 1849094, "coord": {"lat": 33.108059, "lon": 131.787781}, "name": "Usuki"}, {"country": "JP", "state": "", "id": 1849154, "coord": {"lat": 32.190559, "lon": 130.022781}, "name": "Ushibukamachi"}, {"country": "JP", "state": "", "id": 1849168, "coord": {"lat": 33.450001, "lon": 133.449997}, "name": "Usa"}, {"country": "JP", "state": "", "id": 1849183, "coord": {"lat": 33.099998, "lon": 129.983337}, "name": "Ureshinomachi-shimojuku"}, {"country": "JP", "state": "", "id": 1849186, "coord": {"lat": 35.670559, "lon": 139.888611}, "name": "Urayasu"}, {"country": "JP", "state": "", "id": 1849237, "coord": {"lat": 36.799999, "lon": 137.399994}, "name": "Uozu"}, {"country": "JP", "state": "", "id": 1849274, "coord": {"lat": 34.48333, "lon": 133.949997}, "name": "Uno"}, {"country": "JP", "state": "", "id": 1849299, "coord": {"lat": 33.566669, "lon": 130.5}, "name": "Umi"}, {"country": "JP", "state": "", "id": 1849344, "coord": {"lat": 32.799999, "lon": 130.083328}, "name": "Uki"}, {"country": "JP", "state": "", "id": 1849347, "coord": {"lat": 28.299999, "lon": 129.233337}, "name": "Uken"}, {"country": "JP", "state": "", "id": 1849367, "coord": {"lat": 36.683331, "lon": 139.966675}, "name": "Ujiie"}, {"country": "JP", "state": "", "id": 1849372, "coord": {"lat": 34.883331, "lon": 135.800003}, "name": "Uji"}, {"country": "JP", "state": "", "id": 1849407, "coord": {"lat": 35.616669, "lon": 139.116669}, "name": "Uenohara"}, {"country": "JP", "state": "", "id": 1849410, "coord": {"lat": 37.183331, "lon": 138.75}, "name": "Ueno"}, {"country": "JP", "state": "", "id": 1849414, "coord": {"lat": 34.75, "lon": 136.133331}, "name": "Ueno-ebisumachi"}, {"country": "JP", "state": "", "id": 1849423, "coord": {"lat": 35.349998, "lon": 139.516663}, "name": "Ueki"}, {"country": "JP", "state": "", "id": 1849424, "coord": {"lat": 32.900002, "lon": 130.683334}, "name": "Uekimachi-m\u014dno"}, {"country": "JP", "state": "", "id": 1849429, "coord": {"lat": 36.400002, "lon": 138.266663}, "name": "Ueda"}, {"country": "JP", "state": "", "id": 1849498, "coord": {"lat": 33.943062, "lon": 131.251114}, "name": "Ube"}, {"country": "JP", "state": "", "id": 1849519, "coord": {"lat": 35.049999, "lon": 134.0}, "name": "Tsuyama"}, {"country": "JP", "state": "", "id": 1849539, "coord": {"lat": 35.166672, "lon": 136.716675}, "name": "Tsushima"}, {"country": "JP", "state": "", "id": 1849561, "coord": {"lat": 33.240002, "lon": 131.684433}, "name": "Tsurusaki"}, {"country": "JP", "state": "", "id": 1849563, "coord": {"lat": 38.721668, "lon": 139.821671}, "name": "Tsuruoka"}, {"country": "JP", "state": "", "id": 1849584, "coord": {"lat": 36.450001, "lon": 136.633331}, "name": "Tsurugi-asahimachi"}, {"country": "JP", "state": "", "id": 1849588, "coord": {"lat": 34.883331, "lon": 136.983337}, "name": "Tsurugasaki"}, {"country": "JP", "state": "", "id": 1849592, "coord": {"lat": 35.64547, "lon": 136.055801}, "name": "Tsuruga"}, {"country": "JP", "state": "", "id": 1849621, "coord": {"lat": 32.25, "lon": 131.566666}, "name": "Tsun\u014d"}, {"country": "JP", "state": "", "id": 1849633, "coord": {"lat": 32.23333, "lon": 130.449997}, "name": "Tsunagi"}, {"country": "JP", "state": "", "id": 1849647, "coord": {"lat": 32.099998, "lon": 131.399994}, "name": "Tsuma"}, {"country": "JP", "state": "", "id": 1849661, "coord": {"lat": 33.07056, "lon": 131.857224}, "name": "Tsukumiura"}, {"country": "JP", "state": "", "id": 1849706, "coord": {"lat": 33.26667, "lon": 131.149994}, "name": "Tsukawaki"}, {"country": "JP", "state": "", "id": 1849708, "coord": {"lat": 35.416672, "lon": 136.766663}, "name": "Tsukasamachi"}, {"country": "JP", "state": "", "id": 1849713, "coord": {"lat": 34.75, "lon": 135.416672}, "name": "Tsukaguchich\u014d"}, {"country": "JP", "state": "", "id": 1849729, "coord": {"lat": 33.67239, "lon": 131.037415}, "name": "Tsuiki"}, {"country": "JP", "state": "", "id": 1849771, "coord": {"lat": 34.049999, "lon": 139.533325}, "name": "Tsubota"}, {"country": "JP", "state": "", "id": 1849782, "coord": {"lat": 36.666672, "lon": 136.733337}, "name": "Tsubata"}, {"country": "JP", "state": "", "id": 1849788, "coord": {"lat": 37.650002, "lon": 138.933334}, "name": "Tsubame"}, {"country": "JP", "state": "", "id": 1849796, "coord": {"lat": 34.730282, "lon": 136.508606}, "name": "Tsu"}, {"country": "JP", "state": "", "id": 1849798, "coord": {"lat": 38.633331, "lon": 139.683334}, "name": "Tozawa"}, {"country": "JP", "state": "", "id": 1849809, "coord": {"lat": 35.141178, "lon": 137.301498}, "name": "Toyota-shi"}, {"country": "JP", "state": "", "id": 1849814, "coord": {"lat": 35.083328, "lon": 137.149994}, "name": "Toyota"}, {"country": "JP", "state": "", "id": 1849817, "coord": {"lat": 36.299911, "lon": 137.901077}, "name": "Toyoshina"}, {"country": "JP", "state": "", "id": 1849831, "coord": {"lat": 35.533329, "lon": 134.833328}, "name": "Toyooka"}, {"country": "JP", "state": "", "id": 1849837, "coord": {"lat": 34.78244, "lon": 135.469315}, "name": "Toyonaka"}, {"country": "JP", "state": "", "id": 1849845, "coord": {"lat": 34.816669, "lon": 137.399994}, "name": "Toyokawa"}, {"country": "JP", "state": "", "id": 1849846, "coord": {"lat": 34.76667, "lon": 137.383331}, "name": "Toyohashi"}, {"country": "JP", "state": "", "id": 1849850, "coord": {"lat": 34.700001, "lon": 136.933334}, "name": "Toyohama"}, {"country": "JP", "state": "", "id": 1849872, "coord": {"lat": 36.639259, "lon": 137.265137}, "name": "Toyama-ken"}, {"country": "JP", "state": "", "id": 1849876, "coord": {"lat": 36.695278, "lon": 137.211395}, "name": "Toyama"}, {"country": "JP", "state": "", "id": 1849890, "coord": {"lat": 35.367859, "lon": 133.850815}, "name": "Tottori"}, {"country": "JP", "state": "", "id": 1849892, "coord": {"lat": 35.5, "lon": 134.233337}, "name": "Tottori"}, {"country": "JP", "state": "", "id": 1849897, "coord": {"lat": 35.400002, "lon": 139.533325}, "name": "Totsuka ch\u014d"}, {"country": "JP", "state": "", "id": 1849904, "coord": {"lat": 33.366669, "lon": 130.516663}, "name": "Tosu"}, {"country": "JP", "state": "", "id": 1849977, "coord": {"lat": 35.23333, "lon": 136.966675}, "name": "Toriimatsu"}, {"country": "JP", "state": "", "id": 1850004, "coord": {"lat": 34.48333, "lon": 134.183334}, "name": "Tonosh\u014d"}, {"country": "JP", "state": "", "id": 1850034, "coord": {"lat": 34.5, "lon": 135.600006}, "name": "Tondabayashich\u014d"}, {"country": "JP", "state": "", "id": 1850040, "coord": {"lat": 37.001282, "lon": 137.727203}, "name": "Tonami"}, {"country": "JP", "state": "", "id": 1850091, "coord": {"lat": 36.25, "lon": 138.899994}, "name": "Tomioka"}, {"country": "JP", "state": "", "id": 1850108, "coord": {"lat": 26.184999, "lon": 127.675003}, "name": "Tomigusuku"}, {"country": "JP", "state": "", "id": 1850144, "coord": {"lat": 35.689499, "lon": 139.691711}, "name": "Tokyo Prefecture"}, {"country": "JP", "state": "", "id": 1850147, "coord": {"lat": 35.689499, "lon": 139.691711}, "name": "Tokyo"}, {"country": "JP", "state": "", "id": 1850152, "coord": {"lat": 34.049999, "lon": 131.816666}, "name": "Tokuyama"}, {"country": "JP", "state": "", "id": 1850157, "coord": {"lat": 33.921761, "lon": 134.236816}, "name": "Tokushima-ken"}, {"country": "JP", "state": "", "id": 1850158, "coord": {"lat": 34.06583, "lon": 134.559433}, "name": "Tokushima"}, {"country": "JP", "state": "", "id": 1850177, "coord": {"lat": 35.23333, "lon": 136.583328}, "name": "Tokuda"}, {"country": "JP", "state": "", "id": 1850181, "coord": {"lat": 35.79916, "lon": 139.469025}, "name": "Tokorozawa"}, {"country": "JP", "state": "", "id": 1850185, "coord": {"lat": 34.883331, "lon": 136.850006}, "name": "Tokoname"}, {"country": "JP", "state": "", "id": 1850207, "coord": {"lat": 35.349998, "lon": 137.183334}, "name": "Toki"}, {"country": "JP", "state": "", "id": 1850213, "coord": {"lat": 26.192499, "lon": 127.358612}, "name": "Tokashiki"}, {"country": "JP", "state": "", "id": 1850217, "coord": {"lat": 37.133331, "lon": 138.766663}, "name": "T\u014dkamachi"}, {"country": "JP", "state": "", "id": 1850223, "coord": {"lat": 34.799999, "lon": 132.850006}, "name": "T\u014dkaichi"}, {"country": "JP", "state": "", "id": 1850233, "coord": {"lat": 32.400002, "lon": 130.833328}, "name": "T\u014dji"}, {"country": "JP", "state": "", "id": 1850269, "coord": {"lat": 32.833328, "lon": 129.850006}, "name": "Togitsu"}, {"country": "JP", "state": "", "id": 1850302, "coord": {"lat": 31.6, "lon": 131.366669}, "name": "Todaka"}, {"country": "JP", "state": "", "id": 1850307, "coord": {"lat": 37.466671, "lon": 139.0}, "name": "Tochio-honch\u014d"}, {"country": "JP", "state": "", "id": 1850310, "coord": {"lat": 36.692589, "lon": 139.816132}, "name": "Tochigi"}, {"country": "JP", "state": "", "id": 1850311, "coord": {"lat": 36.383331, "lon": 139.733337}, "name": "Tochigi"}, {"country": "JP", "state": "", "id": 1850314, "coord": {"lat": 33.48333, "lon": 129.933334}, "name": "T\u014db\u014d"}, {"country": "JP", "state": "", "id": 1850345, "coord": {"lat": 34.48333, "lon": 136.850006}, "name": "Toba"}, {"country": "JP", "state": "", "id": 1850396, "coord": {"lat": 34.583328, "lon": 135.833328}, "name": "Tenri"}, {"country": "JP", "state": "", "id": 1850405, "coord": {"lat": 39.900002, "lon": 139.966675}, "name": "Tenn\u014d"}, {"country": "JP", "state": "", "id": 1850418, "coord": {"lat": 33.583328, "lon": 130.399994}, "name": "Tenjin"}, {"country": "JP", "state": "", "id": 1850420, "coord": {"lat": 34.333328, "lon": 134.050003}, "name": "Tenjimmae"}, {"country": "JP", "state": "", "id": 1850472, "coord": {"lat": 34.549999, "lon": 135.800003}, "name": "Tawaramoto"}, {"country": "JP", "state": "", "id": 1850498, "coord": {"lat": 35.984261, "lon": 137.997208}, "name": "Tatsuno"}, {"country": "JP", "state": "", "id": 1850499, "coord": {"lat": 34.866669, "lon": 134.550003}, "name": "Tatsunoch\u014d-tominaga"}, {"country": "JP", "state": "", "id": 1850523, "coord": {"lat": 34.98333, "lon": 139.866669}, "name": "Tateyama"}, {"country": "JP", "state": "", "id": 1850559, "coord": {"lat": 36.25, "lon": 139.533325}, "name": "Tatebayashi"}, {"country": "JP", "state": "", "id": 1850589, "coord": {"lat": 31.48333, "lon": 130.699997}, "name": "Tarumizu"}, {"country": "JP", "state": "", "id": 1850600, "coord": {"lat": 35.366669, "lon": 136.533325}, "name": "Tarui"}, {"country": "JP", "state": "", "id": 1850617, "coord": {"lat": 32.26667, "lon": 130.933334}, "name": "Taragi"}, {"country": "JP", "state": "", "id": 1850627, "coord": {"lat": 33.349998, "lon": 130.683334}, "name": "Tanushimarumachi-toyoki"}, {"country": "JP", "state": "", "id": 1850630, "coord": {"lat": 36.366669, "lon": 139.583328}, "name": "Tanuma"}, {"country": "JP", "state": "", "id": 1850692, "coord": {"lat": 35.725262, "lon": 139.5383}, "name": "Nishi-Tokyo-shi"}, {"country": "JP", "state": "", "id": 1850693, "coord": {"lat": 35.723888, "lon": 139.522217}, "name": "Tanashich\u014d"}, {"country": "JP", "state": "", "id": 1850707, "coord": {"lat": 34.816669, "lon": 135.766663}, "name": "Tanabe"}, {"country": "JP", "state": "", "id": 1850708, "coord": {"lat": 33.73333, "lon": 135.366669}, "name": "Tanabe"}, {"country": "JP", "state": "", "id": 1850718, "coord": {"lat": 35.633331, "lon": 135.066666}, "name": "Tamba"}, {"country": "JP", "state": "", "id": 1850736, "coord": {"lat": 32.950001, "lon": 131.383331}, "name": "Tamarai"}, {"country": "JP", "state": "", "id": 1850742, "coord": {"lat": 34.48333, "lon": 133.949997}, "name": "Tamano"}, {"country": "JP", "state": "", "id": 1850745, "coord": {"lat": 32.916672, "lon": 130.566666}, "name": "Tamana"}, {"country": "JP", "state": "", "id": 1850746, "coord": {"lat": 36.299999, "lon": 139.116669}, "name": "Tamamura"}, {"country": "JP", "state": "", "id": 1850762, "coord": {"lat": 38.033329, "lon": 139.666672}, "name": "Tamagawa"}, {"country": "JP", "state": "", "id": 1850818, "coord": {"lat": 34.849998, "lon": 136.916672}, "name": "Taketoyo"}, {"country": "JP", "state": "", "id": 1850822, "coord": {"lat": 24.330669, "lon": 124.08506}, "name": "Taketomi"}, {"country": "JP", "state": "", "id": 1850834, "coord": {"lat": 33.200001, "lon": 130.016663}, "name": "Takeoch\u014d-takeo"}, {"country": "JP", "state": "", "id": 1850837, "coord": {"lat": 36.700001, "lon": 137.300003}, "name": "Takenouchi"}, {"country": "JP", "state": "", "id": 1850860, "coord": {"lat": 34.338329, "lon": 132.916672}, "name": "Takehara"}, {"country": "JP", "state": "", "id": 1850872, "coord": {"lat": 35.903931, "lon": 136.16687}, "name": "Takefu"}, {"country": "JP", "state": "", "id": 1850878, "coord": {"lat": 32.966671, "lon": 131.399994}, "name": "Takedamachi"}, {"country": "JP", "state": "", "id": 1850892, "coord": {"lat": 36.133331, "lon": 137.25}, "name": "Takayama"}, {"country": "JP", "state": "", "id": 1850910, "coord": {"lat": 34.848331, "lon": 135.616776}, "name": "Takatsuki"}, {"country": "JP", "state": "", "id": 1850916, "coord": {"lat": 34.683331, "lon": 131.783325}, "name": "Takatsu"}, {"country": "JP", "state": "", "id": 1850924, "coord": {"lat": 34.650002, "lon": 135.133331}, "name": "Takatorich\u014d"}, {"country": "JP", "state": "", "id": 1850940, "coord": {"lat": 35.133331, "lon": 136.933334}, "name": "Takatach\u014d"}, {"country": "JP", "state": "", "id": 1850943, "coord": {"lat": 35.433331, "lon": 136.233337}, "name": "Takata"}, {"country": "JP", "state": "", "id": 1851002, "coord": {"lat": 36.333328, "lon": 139.016663}, "name": "Takasaki"}, {"country": "JP", "state": "", "id": 1851009, "coord": {"lat": 34.75, "lon": 134.800003}, "name": "Takasagoch\u014d-takasemachi"}, {"country": "JP", "state": "", "id": 1851012, "coord": {"lat": 34.799358, "lon": 135.356964}, "name": "Takarazuka"}, {"country": "JP", "state": "", "id": 1851032, "coord": {"lat": 36.75, "lon": 137.016663}, "name": "Takaoka"}, {"country": "JP", "state": "", "id": 1851068, "coord": {"lat": 32.133331, "lon": 131.5}, "name": "Takanabe"}, {"country": "JP", "state": "", "id": 1851079, "coord": {"lat": 32.816669, "lon": 131.116669}, "name": "Takamori"}, {"country": "JP", "state": "", "id": 1851099, "coord": {"lat": 36.76667, "lon": 136.716675}, "name": "Takamatsu"}, {"country": "JP", "state": "", "id": 1851100, "coord": {"lat": 34.340279, "lon": 134.043335}, "name": "Takamatsu"}, {"country": "JP", "state": "", "id": 1851114, "coord": {"lat": 34.966671, "lon": 138.383331}, "name": "Takaj\u014dmachi"}, {"country": "JP", "state": "", "id": 1851125, "coord": {"lat": 34.51667, "lon": 135.433334}, "name": "Takaishi"}, {"country": "JP", "state": "", "id": 1851137, "coord": {"lat": 34.783329, "lon": 133.616669}, "name": "Takahashi"}, {"country": "JP", "state": "", "id": 1851141, "coord": {"lat": 31.91667, "lon": 131.016663}, "name": "Takaharu"}, {"country": "JP", "state": "", "id": 1851155, "coord": {"lat": 34.916672, "lon": 136.983337}, "name": "Takahama"}, {"country": "JP", "state": "", "id": 1851170, "coord": {"lat": 33.556702, "lon": 131.445053}, "name": "Bungo-Takada-shi"}, {"country": "JP", "state": "", "id": 1851193, "coord": {"lat": 35.316669, "lon": 137.133331}, "name": "Tajimi"}, {"country": "JP", "state": "", "id": 1851259, "coord": {"lat": 34.666672, "lon": 137.266663}, "name": "Tahara"}, {"country": "JP", "state": "", "id": 1851273, "coord": {"lat": 33.633331, "lon": 130.800003}, "name": "Tagawa"}, {"country": "JP", "state": "", "id": 1851279, "coord": {"lat": 35.226341, "lon": 136.286255}, "name": "Taga"}, {"country": "JP", "state": "", "id": 1851282, "coord": {"lat": 34.275002, "lon": 133.75}, "name": "Tadotsu"}, {"country": "JP", "state": "", "id": 1851292, "coord": {"lat": 37.349998, "lon": 139.316666}, "name": "Tadami"}, {"country": "JP", "state": "", "id": 1851307, "coord": {"lat": 35.69278, "lon": 139.41806}, "name": "Tachikawa"}, {"country": "JP", "state": "", "id": 1851319, "coord": {"lat": 33.400002, "lon": 130.616669}, "name": "Tachiarai"}, {"country": "JP", "state": "", "id": 1851323, "coord": {"lat": 33.950001, "lon": 132.066666}, "name": "Tabuse"}, {"country": "JP", "state": "", "id": 1851348, "coord": {"lat": 34.883331, "lon": 136.583328}, "name": "Suzuka"}, {"country": "JP", "state": "", "id": 1851357, "coord": {"lat": 36.650002, "lon": 138.316666}, "name": "Suzaka"}, {"country": "JP", "state": "", "id": 1851368, "coord": {"lat": 36.037991, "lon": 138.113083}, "name": "Suwa"}, {"country": "JP", "state": "", "id": 1851383, "coord": {"lat": 33.549999, "lon": 135.5}, "name": "Susami"}, {"country": "JP", "state": "", "id": 1851390, "coord": {"lat": 33.366669, "lon": 133.283325}, "name": "Susaki"}, {"country": "JP", "state": "", "id": 1851426, "coord": {"lat": 34.349998, "lon": 134.899994}, "name": "Sumoto"}, {"country": "JP", "state": "", "id": 1851462, "coord": {"lat": 32.933331, "lon": 132.733337}, "name": "Sukumo"}, {"country": "JP", "state": "", "id": 1851483, "coord": {"lat": 34.761429, "lon": 135.515671}, "name": "Suita"}, {"country": "JP", "state": "", "id": 1851494, "coord": {"lat": 37.833328, "lon": 139.233337}, "name": "Suibara"}, {"country": "JP", "state": "", "id": 1851497, "coord": {"lat": 36.26667, "lon": 138.149994}, "name": "Suguri"}, {"country": "JP", "state": "", "id": 1851504, "coord": {"lat": 36.033329, "lon": 139.733337}, "name": "Sugito"}, {"country": "JP", "state": "", "id": 1851542, "coord": {"lat": 31.65, "lon": 131.016663}, "name": "Sueyoshich\u014d-ninokata"}, {"country": "JP", "state": "", "id": 1851597, "coord": {"lat": 32.283329, "lon": 130.983337}, "name": "Shimosomeda"}, {"country": "JP", "state": "", "id": 1851604, "coord": {"lat": 35.820278, "lon": 139.804443}, "name": "S\u014dka"}, {"country": "JP", "state": "", "id": 1851606, "coord": {"lat": 34.666672, "lon": 133.75}, "name": "S\u014dja"}, {"country": "JP", "state": "", "id": 1851617, "coord": {"lat": 33.566669, "lon": 130.866669}, "name": "Soeda"}, {"country": "JP", "state": "", "id": 1851622, "coord": {"lat": 35.25, "lon": 136.716675}, "name": "Sobue"}, {"country": "JP", "state": "", "id": 1851632, "coord": {"lat": 34.966671, "lon": 138.933334}, "name": "Shuzenji"}, {"country": "JP", "state": "", "id": 1851711, "coord": {"lat": 36.066669, "lon": 139.600006}, "name": "Sh\u014dbu"}, {"country": "JP", "state": "", "id": 1851713, "coord": {"lat": 34.849998, "lon": 133.016663}, "name": "Sh\u014dbara"}, {"country": "JP", "state": "", "id": 1851715, "coord": {"lat": 35.025219, "lon": 138.325424}, "name": "Shizuoka"}, {"country": "JP", "state": "", "id": 1851717, "coord": {"lat": 34.97694, "lon": 138.383057}, "name": "Shizuoka"}, {"country": "JP", "state": "", "id": 1851751, "coord": {"lat": 35.099998, "lon": 137.566666}, "name": "Shitara"}, {"country": "JP", "state": "", "id": 1851813, "coord": {"lat": 37.76667, "lon": 139.016663}, "name": "Shirone"}, {"country": "JP", "state": "", "id": 1851842, "coord": {"lat": 36.433331, "lon": 136.633331}, "name": "Shirayamamachi"}, {"country": "JP", "state": "", "id": 1851883, "coord": {"lat": 36.01667, "lon": 139.666672}, "name": "Shiraoka"}, {"country": "JP", "state": "", "id": 1851898, "coord": {"lat": 35.76667, "lon": 139.633331}, "name": "Shirako"}, {"country": "JP", "state": "", "id": 1851935, "coord": {"lat": 34.783329, "lon": 134.716675}, "name": "Shirahamach\u014d-usazakiminami"}, {"country": "JP", "state": "", "id": 1851937, "coord": {"lat": 33.01667, "lon": 129.733337}, "name": "Shirahama"}, {"country": "JP", "state": "", "id": 1851951, "coord": {"lat": 37.066669, "lon": 139.933334}, "name": "Shiozawa"}, {"country": "JP", "state": "", "id": 1851952, "coord": {"lat": 37.033329, "lon": 138.850006}, "name": "Shiozawa"}, {"country": "JP", "state": "", "id": 1851992, "coord": {"lat": 35.583328, "lon": 139.533325}, "name": "Shiomidai"}, {"country": "JP", "state": "", "id": 1852003, "coord": {"lat": 36.099998, "lon": 137.966675}, "name": "Shiojiri"}, {"country": "JP", "state": "", "id": 1852025, "coord": {"lat": 33.566669, "lon": 130.433334}, "name": "Shiobaru"}, {"country": "JP", "state": "", "id": 1852038, "coord": {"lat": 25.85195, "lon": 131.259277}, "name": "Shint\u014d"}, {"country": "JP", "state": "", "id": 1852046, "coord": {"lat": 34.900002, "lon": 137.5}, "name": "Shinshiro"}, {"country": "JP", "state": "", "id": 1852097, "coord": {"lat": 35.400002, "lon": 132.899994}, "name": "Shinjich\u014d-shinji"}, {"country": "JP", "state": "", "id": 1852102, "coord": {"lat": 34.549999, "lon": 133.266663}, "name": "Shin\u2019ichi"}, {"country": "JP", "state": "", "id": 1852109, "coord": {"lat": 33.716671, "lon": 130.433334}, "name": "Shing\u016b"}, {"country": "JP", "state": "", "id": 1852140, "coord": {"lat": 35.60902, "lon": 139.730164}, "name": "Shinagawa-ku"}, {"country": "JP", "state": "", "id": 1852195, "coord": {"lat": 33.51667, "lon": 130.433334}, "name": "Shimoshirouzu"}, {"country": "JP", "state": "", "id": 1852201, "coord": {"lat": 35.216671, "lon": 132.649994}, "name": "Shimo-satsume"}, {"country": "JP", "state": "", "id": 1852225, "coord": {"lat": 33.950001, "lon": 130.949997}, "name": "Shimonoseki"}, {"country": "JP", "state": "", "id": 1852237, "coord": {"lat": 36.216671, "lon": 138.783325}, "name": "Shimonita"}, {"country": "JP", "state": "", "id": 1852272, "coord": {"lat": 35.099998, "lon": 135.600006}, "name": "Shimoku"}, {"country": "JP", "state": "", "id": 1852278, "coord": {"lat": 35.566669, "lon": 139.633331}, "name": "Shimokodanaka"}, {"country": "JP", "state": "", "id": 1852347, "coord": {"lat": 36.299999, "lon": 139.983337}, "name": "Shimodate"}, {"country": "JP", "state": "", "id": 1852357, "coord": {"lat": 34.666672, "lon": 138.949997}, "name": "Shimoda"}, {"country": "JP", "state": "", "id": 1852383, "coord": {"lat": 34.183331, "lon": 135.199997}, "name": "Minato"}, {"country": "JP", "state": "", "id": 1852385, "coord": {"lat": 36.783329, "lon": 137.066666}, "name": "Nishishinminato"}, {"country": "JP", "state": "", "id": 1852427, "coord": {"lat": 35.433331, "lon": 139.516663}, "name": "Shinbashich\u014d"}, {"country": "JP", "state": "", "id": 1852442, "coord": {"lat": 35.076931, "lon": 132.561111}, "name": "Shimane-ken"}, {"country": "JP", "state": "", "id": 1852472, "coord": {"lat": 34.816669, "lon": 138.183334}, "name": "Shimada"}, {"country": "JP", "state": "", "id": 1852479, "coord": {"lat": 32.783329, "lon": 130.366669}, "name": "Shimabara"}, {"country": "JP", "state": "", "id": 1852502, "coord": {"lat": 35.833328, "lon": 139.583328}, "name": "Shiki"}, {"country": "JP", "state": "", "id": 1852524, "coord": {"lat": 35.00378, "lon": 135.763031}, "name": "Shij\u014dd\u014dri"}, {"country": "JP", "state": "", "id": 1852534, "coord": {"lat": 33.653412, "lon": 131.057968}, "name": "Shiida"}, {"country": "JP", "state": "", "id": 1852553, "coord": {"lat": 35.219391, "lon": 136.13652}, "name": "Shiga"}, {"country": "JP", "state": "", "id": 1852561, "coord": {"lat": 34.32333, "lon": 134.173325}, "name": "Shido"}, {"country": "JP", "state": "", "id": 1852579, "coord": {"lat": 24.783461, "lon": 125.308693}, "name": "Nanabari"}, {"country": "JP", "state": "", "id": 1852588, "coord": {"lat": 31.466669, "lon": 131.104996}, "name": "Shibushi"}, {"country": "JP", "state": "", "id": 1852595, "coord": {"lat": 36.48333, "lon": 139.0}, "name": "Shibukawa"}, {"country": "JP", "state": "", "id": 1852607, "coord": {"lat": 37.950001, "lon": 139.333328}, "name": "Shibata"}, {"country": "JP", "state": "", "id": 1852663, "coord": {"lat": 35.23333, "lon": 137.100006}, "name": "Seto"}, {"country": "JP", "state": "", "id": 1852673, "coord": {"lat": 33.150002, "lon": 130.466675}, "name": "Setakamachi-takayanagi"}, {"country": "JP", "state": "", "id": 1852676, "coord": {"lat": 35.633331, "lon": 139.649994}, "name": "Umegaoka"}, {"country": "JP", "state": "", "id": 1852679, "coord": {"lat": 34.966671, "lon": 135.916672}, "name": "Seta"}, {"country": "JP", "state": "", "id": 1852685, "coord": {"lat": 31.41667, "lon": 130.516663}, "name": "Kiire-sesekushich\u014d"}, {"country": "JP", "state": "", "id": 1852699, "coord": {"lat": 34.383331, "lon": 131.199997}, "name": "Senzaki"}, {"country": "JP", "state": "", "id": 1852736, "coord": {"lat": 31.816669, "lon": 130.300003}, "name": "Satsumasendai"}, {"country": "JP", "state": "", "id": 1852748, "coord": {"lat": 32.700001, "lon": 129.850006}, "name": "Sembonyama"}, {"country": "JP", "state": "", "id": 1852775, "coord": {"lat": 35.48333, "lon": 136.916672}, "name": "Sekimachi"}, {"country": "JP", "state": "", "id": 1852788, "coord": {"lat": 35.366669, "lon": 136.466675}, "name": "Sekigahara"}, {"country": "JP", "state": "", "id": 1852795, "coord": {"lat": 34.849998, "lon": 136.399994}, "name": "Sekich\u014d-furumaya"}, {"country": "JP", "state": "", "id": 1852831, "coord": {"lat": 35.0, "lon": 134.366669}, "name": "Say\u014d"}, {"country": "JP", "state": "", "id": 1852849, "coord": {"lat": 36.066669, "lon": 139.716675}, "name": "Satte"}, {"country": "JP", "state": "", "id": 1852899, "coord": {"lat": 33.159168, "lon": 129.722778}, "name": "Sasebo"}, {"country": "JP", "state": "", "id": 1852901, "coord": {"lat": 35.066669, "lon": 135.216675}, "name": "Sasayama"}, {"country": "JP", "state": "", "id": 1852915, "coord": {"lat": 33.616669, "lon": 130.533325}, "name": "Sasaguri"}, {"country": "JP", "state": "", "id": 1852964, "coord": {"lat": 36.316669, "lon": 139.583328}, "name": "Sano"}, {"country": "JP", "state": "", "id": 1852984, "coord": {"lat": 37.616669, "lon": 138.949997}, "name": "Sanj\u014d"}, {"country": "JP", "state": "", "id": 1853008, "coord": {"lat": 34.883331, "lon": 135.233337}, "name": "Sandach\u014d"}, {"country": "JP", "state": "", "id": 1853024, "coord": {"lat": 32.0, "lon": 131.350006}, "name": "Sanmy\u014d"}, {"country": "JP", "state": "", "id": 1853045, "coord": {"lat": 33.549999, "lon": 133.550003}, "name": "Sanbashid\u014dri"}, {"country": "JP", "state": "", "id": 1853058, "coord": {"lat": 35.450001, "lon": 139.466675}, "name": "Sakurakabu"}, {"country": "JP", "state": "", "id": 1853066, "coord": {"lat": 34.5, "lon": 135.850006}, "name": "Sakurai"}, {"country": "JP", "state": "", "id": 1853071, "coord": {"lat": 36.150002, "lon": 139.466675}, "name": "Sakurach\u014d"}, {"country": "JP", "state": "", "id": 1853072, "coord": {"lat": 36.700001, "lon": 137.216675}, "name": "Sakurabashid\u014dri"}, {"country": "JP", "state": "", "id": 1853081, "coord": {"lat": 36.216671, "lon": 138.483337}, "name": "Saku"}, {"country": "JP", "state": "", "id": 1853140, "coord": {"lat": 38.916672, "lon": 139.854996}, "name": "Sakata"}, {"country": "JP", "state": "", "id": 1853150, "coord": {"lat": 32.933331, "lon": 131.133331}, "name": "Ichinomiyamachi-sakanashi"}, {"country": "JP", "state": "", "id": 1853163, "coord": {"lat": 36.466671, "lon": 138.183334}, "name": "Sakaki"}, {"country": "JP", "state": "", "id": 1853174, "coord": {"lat": 35.549999, "lon": 133.233337}, "name": "Sakaiminato"}, {"country": "JP", "state": "", "id": 1853188, "coord": {"lat": 34.316669, "lon": 133.850006}, "name": "Sakaidech\u014d"}, {"country": "JP", "state": "", "id": 1853190, "coord": {"lat": 34.316669, "lon": 133.850006}, "name": "Sakaidech\u014d"}, {"country": "JP", "state": "", "id": 1853192, "coord": {"lat": 36.26667, "lon": 139.25}, "name": "Sakai-nakajima"}, {"country": "JP", "state": "", "id": 1853193, "coord": {"lat": 36.099998, "lon": 139.800003}, "name": "Sakai"}, {"country": "JP", "state": "", "id": 1853195, "coord": {"lat": 34.583328, "lon": 135.466675}, "name": "Sakai"}, {"country": "JP", "state": "", "id": 1853202, "coord": {"lat": 35.950001, "lon": 139.033325}, "name": "Sakaguchi"}, {"country": "JP", "state": "", "id": 1853209, "coord": {"lat": 35.95694, "lon": 139.388885}, "name": "Sakado"}, {"country": "JP", "state": "", "id": 1853226, "coord": {"lat": 35.857208, "lon": 139.649033}, "name": "Saitama-ken"}, {"country": "JP", "state": "", "id": 1853237, "coord": {"lat": 32.950001, "lon": 131.899994}, "name": "Saiki"}, {"country": "JP", "state": "", "id": 1853280, "coord": {"lat": 34.683331, "lon": 138.199997}, "name": "Sagara"}, {"country": "JP", "state": "", "id": 1853295, "coord": {"lat": 35.553059, "lon": 139.354446}, "name": "Sagamihara"}, {"country": "JP", "state": "", "id": 1853299, "coord": {"lat": 33.28904, "lon": 130.114914}, "name": "Saga-ken"}, {"country": "JP", "state": "", "id": 1853303, "coord": {"lat": 33.249321, "lon": 130.298798}, "name": "Saga"}, {"country": "JP", "state": "", "id": 1853338, "coord": {"lat": 35.946468, "lon": 136.184982}, "name": "Sabae"}, {"country": "JP", "state": "", "id": 1853354, "coord": {"lat": 35.650002, "lon": 138.5}, "name": "Ry\u016b\u014d"}, {"country": "JP", "state": "", "id": 1853371, "coord": {"lat": 38.083328, "lon": 138.433334}, "name": "Ry\u014dtsu-minato"}, {"country": "JP", "state": "", "id": 1853394, "coord": {"lat": 31.783331, "lon": 130.716675}, "name": "Ronji"}, {"country": "JP", "state": "", "id": 1853398, "coord": {"lat": 34.933331, "lon": 135.800003}, "name": "Rokujiz\u014d"}, {"country": "JP", "state": "", "id": 1853412, "coord": {"lat": 36.383331, "lon": 139.066666}, "name": "Renjakuch\u014d"}, {"country": "JP", "state": "", "id": 1853433, "coord": {"lat": 32.866669, "lon": 130.866669}, "name": "\u014czu"}, {"country": "JP", "state": "", "id": 1853483, "coord": {"lat": 36.299999, "lon": 139.800003}, "name": "Oyama"}, {"country": "JP", "state": "", "id": 1853486, "coord": {"lat": 34.599998, "lon": 138.216675}, "name": "\u014cyama"}, {"country": "JP", "state": "", "id": 1853514, "coord": {"lat": 34.066669, "lon": 136.199997}, "name": "Owase"}, {"country": "JP", "state": "", "id": 1853564, "coord": {"lat": 35.599998, "lon": 138.933334}, "name": "\u014ctsuki"}, {"country": "JP", "state": "", "id": 1853574, "coord": {"lat": 35.00444, "lon": 135.868332}, "name": "\u014ctsu"}, {"country": "JP", "state": "", "id": 1853620, "coord": {"lat": 36.067348, "lon": 136.220169}, "name": "Ohtemachi"}, {"country": "JP", "state": "", "id": 1853662, "coord": {"lat": 34.200001, "lon": 132.216675}, "name": "\u014ctake"}, {"country": "JP", "state": "", "id": 1853677, "coord": {"lat": 36.299999, "lon": 139.366669}, "name": "\u014cta"}, {"country": "JP", "state": "", "id": 1853807, "coord": {"lat": 36.133331, "lon": 139.449997}, "name": "Oshi"}, {"country": "JP", "state": "", "id": 1853904, "coord": {"lat": 34.68631, "lon": 135.519684}, "name": "\u014csaka-fu"}, {"country": "JP", "state": "", "id": 1853908, "coord": {"lat": 35.950001, "lon": 137.266663}, "name": "Osaka"}, {"country": "JP", "state": "", "id": 1853909, "coord": {"lat": 34.693741, "lon": 135.502182}, "name": "Osaka"}, {"country": "JP", "state": "", "id": 1853992, "coord": {"lat": 34.416672, "lon": 133.199997}, "name": "Onomichi"}, {"country": "JP", "state": "", "id": 1854018, "coord": {"lat": 34.001389, "lon": 131.183609}, "name": "Onoda"}, {"country": "JP", "state": "", "id": 1854022, "coord": {"lat": 35.98106, "lon": 136.487274}, "name": "Ono"}, {"country": "JP", "state": "", "id": 1854026, "coord": {"lat": 34.849998, "lon": 134.933334}, "name": "Ono"}, {"country": "JP", "state": "", "id": 1854028, "coord": {"lat": 34.283329, "lon": 132.266663}, "name": "\u014cno-hara"}, {"country": "JP", "state": "", "id": 1854029, "coord": {"lat": 33.98333, "lon": 134.366669}, "name": "Ono"}, {"country": "JP", "state": "", "id": 1854037, "coord": {"lat": 26.492781, "lon": 127.85083}, "name": "Onna"}, {"country": "JP", "state": "", "id": 1854083, "coord": {"lat": 33.033329, "lon": 130.449997}, "name": "\u014cmuta"}, {"country": "JP", "state": "", "id": 1854093, "coord": {"lat": 32.921391, "lon": 129.953888}, "name": "\u014cmura"}, {"country": "JP", "state": "", "id": 1854128, "coord": {"lat": 35.216671, "lon": 138.616669}, "name": "\u014cmiyach\u014d"}, {"country": "JP", "state": "", "id": 1854156, "coord": {"lat": 36.566669, "lon": 137.383331}, "name": "Omi"}, {"country": "JP", "state": "", "id": 1854162, "coord": {"lat": 35.78389, "lon": 139.243057}, "name": "\u014cme"}, {"country": "JP", "state": "", "id": 1854177, "coord": {"lat": 36.433331, "lon": 139.283325}, "name": "\u014cmamach\u014d-\u014dmama"}, {"country": "JP", "state": "", "id": 1854186, "coord": {"lat": 36.5, "lon": 137.866669}, "name": "\u014cmachi"}, {"country": "JP", "state": "", "id": 1854246, "coord": {"lat": 32.066669, "lon": 130.616669}, "name": "\u014ckuchi-shinohara"}, {"country": "JP", "state": "", "id": 1854255, "coord": {"lat": 34.400002, "lon": 135.350006}, "name": "\u014ckubo-naka"}, {"country": "JP", "state": "", "id": 1854345, "coord": {"lat": 25.772249, "lon": 126.668709}, "name": "Okinawa"}, {"country": "JP", "state": "", "id": 1854371, "coord": {"lat": 36.0, "lon": 139.55722}, "name": "Okegawa"}, {"country": "JP", "state": "", "id": 1854372, "coord": {"lat": 33.099998, "lon": 139.783325}, "name": "\u014ckag\u014d"}, {"country": "JP", "state": "", "id": 1854376, "coord": {"lat": 34.950001, "lon": 137.166672}, "name": "Okazaki"}, {"country": "JP", "state": "", "id": 1854381, "coord": {"lat": 34.902039, "lon": 133.810181}, "name": "Okayama-ken"}, {"country": "JP", "state": "", "id": 1854383, "coord": {"lat": 34.661671, "lon": 133.934998}, "name": "Okayama"}, {"country": "JP", "state": "", "id": 1854384, "coord": {"lat": 36.056591, "lon": 138.045105}, "name": "Okaya"}, {"country": "JP", "state": "", "id": 1854405, "coord": {"lat": 33.200001, "lon": 130.350006}, "name": "\u014ckawa"}, {"country": "JP", "state": "", "id": 1854431, "coord": {"lat": 34.783329, "lon": 139.383331}, "name": "Okata"}, {"country": "JP", "state": "", "id": 1854444, "coord": {"lat": 37.299999, "lon": 138.800003}, "name": "Ojiya"}, {"country": "JP", "state": "", "id": 1854461, "coord": {"lat": 34.98333, "lon": 135.616669}, "name": "Shinoch\u014d-\u014dji"}, {"country": "JP", "state": "", "id": 1854484, "coord": {"lat": 33.19899, "lon": 131.433533}, "name": "Oita Prefecture"}, {"country": "JP", "state": "", "id": 1854487, "coord": {"lat": 33.23806, "lon": 131.612503}, "name": "\u014cita"}, {"country": "JP", "state": "", "id": 1854492, "coord": {"lat": 35.303059, "lon": 139.30278}, "name": "\u014ciso"}, {"country": "JP", "state": "", "id": 1854530, "coord": {"lat": 35.851109, "lon": 139.516663}, "name": "\u014ci"}, {"country": "JP", "state": "", "id": 1854579, "coord": {"lat": 34.5, "lon": 136.833328}, "name": "Ohama"}, {"country": "JP", "state": "", "id": 1854585, "coord": {"lat": 32.650002, "lon": 128.816666}, "name": "Hama"}, {"country": "JP", "state": "", "id": 1854588, "coord": {"lat": 24.344481, "lon": 124.19706}, "name": "\u014chama"}, {"country": "JP", "state": "", "id": 1854611, "coord": {"lat": 38.066669, "lon": 139.75}, "name": "Ogunimachi"}, {"country": "JP", "state": "", "id": 1854626, "coord": {"lat": 35.958889, "lon": 139.289993}, "name": "Ogose"}, {"country": "JP", "state": "", "id": 1854629, "coord": {"lat": 34.099998, "lon": 131.399994}, "name": "Og\u014dri-shimog\u014d"}, {"country": "JP", "state": "", "id": 1854642, "coord": {"lat": 35.833328, "lon": 139.399994}, "name": "\u014cgimachiya"}, {"country": "JP", "state": "", "id": 1854656, "coord": {"lat": 33.287781, "lon": 130.201111}, "name": "Ogimachi"}, {"country": "JP", "state": "", "id": 1854665, "coord": {"lat": 36.049999, "lon": 139.266663}, "name": "Ogawa"}, {"country": "JP", "state": "", "id": 1854691, "coord": {"lat": 36.01667, "lon": 139.0}, "name": "Ogano"}, {"country": "JP", "state": "", "id": 1854703, "coord": {"lat": 35.349998, "lon": 136.616669}, "name": "\u014cgaki"}, {"country": "JP", "state": "", "id": 1854712, "coord": {"lat": 34.273331, "lon": 129.354721}, "name": "Mitsushimach\u014d-\u014dfunakoshi"}, {"country": "JP", "state": "", "id": 1854742, "coord": {"lat": 37.549999, "lon": 139.983337}, "name": "\u014ctera"}, {"country": "JP", "state": "", "id": 1854747, "coord": {"lat": 35.255562, "lon": 139.159714}, "name": "Odawara"}, {"country": "JP", "state": "", "id": 1854762, "coord": {"lat": 35.066669, "lon": 136.933334}, "name": "\u014cdaka"}, {"country": "JP", "state": "", "id": 1854774, "coord": {"lat": 35.183331, "lon": 132.5}, "name": "\u014cdach\u014d-\u014dda"}, {"country": "JP", "state": "", "id": 1854788, "coord": {"lat": 35.799999, "lon": 138.833328}, "name": "Ochiai"}, {"country": "JP", "state": "", "id": 1854798, "coord": {"lat": 36.700001, "lon": 138.316666}, "name": "Obuse"}, {"country": "JP", "state": "", "id": 1854803, "coord": {"lat": 35.0, "lon": 136.966675}, "name": "\u014cbu"}, {"country": "JP", "state": "", "id": 1854807, "coord": {"lat": 32.816669, "lon": 129.883331}, "name": "Obita"}, {"country": "JP", "state": "", "id": 1854849, "coord": {"lat": 35.495762, "lon": 135.746033}, "name": "Obama"}, {"country": "JP", "state": "", "id": 1854868, "coord": {"lat": 36.933331, "lon": 137.5}, "name": "Ny\u016bzen"}, {"country": "JP", "state": "", "id": 1854902, "coord": {"lat": 35.099998, "lon": 138.866669}, "name": "Numazu"}, {"country": "JP", "state": "", "id": 1854905, "coord": {"lat": 36.633331, "lon": 139.050003}, "name": "Numata"}, {"country": "JP", "state": "", "id": 1854964, "coord": {"lat": 26.35, "lon": 127.76667}, "name": "Nosato"}, {"country": "JP", "state": "", "id": 1854979, "coord": {"lat": 36.533329, "lon": 136.616669}, "name": "Nonoichi"}, {"country": "JP", "state": "", "id": 1855066, "coord": {"lat": 33.73333, "lon": 130.733337}, "name": "N\u014dgata"}, {"country": "JP", "state": "", "id": 1855078, "coord": {"lat": 35.941109, "lon": 139.858063}, "name": "Noda"}, {"country": "JP", "state": "", "id": 1855095, "coord": {"lat": 32.583328, "lon": 131.666672}, "name": "Nobeoka"}, {"country": "JP", "state": "", "id": 1855114, "coord": {"lat": 35.516472, "lon": 135.752304}, "name": "Nishizu"}, {"country": "JP", "state": "", "id": 1855134, "coord": {"lat": 34.98333, "lon": 134.966675}, "name": "Nishiwaki"}, {"country": "JP", "state": "", "id": 1855189, "coord": {"lat": 34.866669, "lon": 137.050003}, "name": "Nishio"}, {"country": "JP", "state": "", "id": 1855203, "coord": {"lat": 30.73333, "lon": 131.0}, "name": "Nishinoomote"}, {"country": "JP", "state": "", "id": 1855207, "coord": {"lat": 34.716671, "lon": 135.333328}, "name": "Nishinomiya-hama"}, {"country": "JP", "state": "", "id": 1855265, "coord": {"lat": 35.650002, "lon": 138.566666}, "name": "Nishikich\u014d"}, {"country": "JP", "state": "", "id": 1855301, "coord": {"lat": 35.583328, "lon": 138.533325}, "name": "Nishi-hanawa"}, {"country": "JP", "state": "", "id": 1855309, "coord": {"lat": 36.650002, "lon": 138.183334}, "name": "Nishigoch\u014d"}, {"country": "JP", "state": "", "id": 1855342, "coord": {"lat": 26.18417, "lon": 127.755829}, "name": "Nishihara"}, {"country": "JP", "state": "", "id": 1855357, "coord": {"lat": 26.58333, "lon": 127.23333}, "name": "Nishi"}, {"country": "JP", "state": "", "id": 1855363, "coord": {"lat": 35.700001, "lon": 138.449997}, "name": "Nirasaki"}, {"country": "JP", "state": "", "id": 1855380, "coord": {"lat": 35.303329, "lon": 139.253326}, "name": "Ninomiya"}, {"country": "JP", "state": "", "id": 1855395, "coord": {"lat": 36.75, "lon": 139.616669}, "name": "Nikk\u014d"}, {"country": "JP", "state": "", "id": 1855410, "coord": {"lat": 37.799999, "lon": 139.116669}, "name": "Niitsu-honch\u014d"}, {"country": "JP", "state": "", "id": 1855416, "coord": {"lat": 34.98333, "lon": 133.466675}, "name": "Niimi"}, {"country": "JP", "state": "", "id": 1855425, "coord": {"lat": 33.959332, "lon": 133.316727}, "name": "Niihama"}, {"country": "JP", "state": "", "id": 1855429, "coord": {"lat": 37.52343, "lon": 138.91748}, "name": "Niigata-ken"}, {"country": "JP", "state": "", "id": 1855431, "coord": {"lat": 37.902222, "lon": 139.023605}, "name": "Niigata"}, {"country": "JP", "state": "", "id": 1855444, "coord": {"lat": 35.450001, "lon": 139.649994}, "name": "Nihon\u2019\u014dd\u014dri"}, {"country": "JP", "state": "", "id": 1855476, "coord": {"lat": 31.6, "lon": 131.366669}, "name": "Nichinan"}, {"country": "JP", "state": "", "id": 1855503, "coord": {"lat": 35.73333, "lon": 139.649994}, "name": "Nerima"}, {"country": "JP", "state": "", "id": 1855512, "coord": {"lat": 34.900002, "lon": 139.833328}, "name": "Nemoto"}, {"country": "JP", "state": "", "id": 1855540, "coord": {"lat": 28.366671, "lon": 129.483337}, "name": "Naze"}, {"country": "JP", "state": "", "id": 1855566, "coord": {"lat": 34.783329, "lon": 135.666672}, "name": "Nasuzukuri"}, {"country": "JP", "state": "", "id": 1855580, "coord": {"lat": 34.183331, "lon": 134.616669}, "name": "Narutoch\u014d-mitsuishi"}, {"country": "JP", "state": "", "id": 1855585, "coord": {"lat": 35.75, "lon": 138.733337}, "name": "Narusawa"}, {"country": "JP", "state": "", "id": 1855608, "coord": {"lat": 34.685249, "lon": 135.832886}, "name": "Nara-ken"}, {"country": "JP", "state": "", "id": 1855612, "coord": {"lat": 34.685051, "lon": 135.804855}, "name": "Nara-shi"}, {"country": "JP", "state": "", "id": 1855623, "coord": {"lat": 34.599998, "lon": 133.466675}, "name": "Nanukaichi"}, {"country": "JP", "state": "", "id": 1855670, "coord": {"lat": 37.049999, "lon": 136.966675}, "name": "Nanao"}, {"country": "JP", "state": "", "id": 1855694, "coord": {"lat": 36.76667, "lon": 137.333328}, "name": "Namerikawa"}, {"country": "JP", "state": "", "id": 1855713, "coord": {"lat": 26.675831, "lon": 127.971672}, "name": "Nakijin"}, {"country": "JP", "state": "", "id": 1855730, "coord": {"lat": 35.716671, "lon": 139.949997}, "name": "Nakayama"}, {"country": "JP", "state": "", "id": 1855753, "coord": {"lat": 35.48333, "lon": 137.5}, "name": "Nakatsugawa"}, {"country": "JP", "state": "", "id": 1855756, "coord": {"lat": 34.799999, "lon": 137.716675}, "name": "Nakatsu"}, {"country": "JP", "state": "", "id": 1855757, "coord": {"lat": 33.59811, "lon": 131.188293}, "name": "Nakatsu"}, {"country": "JP", "state": "", "id": 1855847, "coord": {"lat": 25.94562, "lon": 131.310883}, "name": "Nakano"}, {"country": "JP", "state": "", "id": 1855852, "coord": {"lat": 36.583328, "lon": 138.850006}, "name": "Nakanoj\u014dmachi"}, {"country": "JP", "state": "", "id": 1855863, "coord": {"lat": 36.75, "lon": 138.366669}, "name": "Nakano"}, {"country": "JP", "state": "", "id": 1855882, "coord": {"lat": 36.150002, "lon": 137.916672}, "name": "Nakamura"}, {"country": "JP", "state": "", "id": 1855891, "coord": {"lat": 32.98333, "lon": 132.933334}, "name": "Nakamura"}, {"country": "JP", "state": "", "id": 1855907, "coord": {"lat": 33.816669, "lon": 130.699997}, "name": "Nakama"}, {"country": "JP", "state": "", "id": 1855933, "coord": {"lat": 36.716671, "lon": 137.216675}, "name": "Nakajima"}, {"country": "JP", "state": "", "id": 1855939, "coord": {"lat": 34.700001, "lon": 137.850006}, "name": "Nakaizumi"}, {"country": "JP", "state": "", "id": 1855944, "coord": {"lat": 34.166672, "lon": 131.483337}, "name": "Nakaichi"}, {"country": "JP", "state": "", "id": 1855947, "coord": {"lat": 34.98333, "lon": 134.533325}, "name": "Yamazakich\u014d-nakai"}, {"country": "JP", "state": "", "id": 1855973, "coord": {"lat": 34.01667, "lon": 131.333328}, "name": "Naka-g\u014dchi"}, {"country": "JP", "state": "", "id": 1855987, "coord": {"lat": 35.066669, "lon": 137.033325}, "name": "Nakagawa"}, {"country": "JP", "state": "", "id": 1856033, "coord": {"lat": 33.416672, "lon": 134.016663}, "name": "Nahari"}, {"country": "JP", "state": "", "id": 1856035, "coord": {"lat": 26.2125, "lon": 127.681107}, "name": "Naha"}, {"country": "JP", "state": "", "id": 1856057, "coord": {"lat": 35.181469, "lon": 136.906403}, "name": "Nagoya"}, {"country": "JP", "state": "", "id": 1856068, "coord": {"lat": 26.58806, "lon": 127.976112}, "name": "Nago"}, {"country": "JP", "state": "", "id": 1856156, "coord": {"lat": 33.23344, "lon": 129.611084}, "name": "Nagasaki Prefecture"}, {"country": "JP", "state": "", "id": 1856177, "coord": {"lat": 32.74472, "lon": 129.873611}, "name": "Nagasaki"}, {"country": "JP", "state": "", "id": 1856184, "coord": {"lat": 35.8563, "lon": 139.902664}, "name": "Nagareyama"}, {"country": "JP", "state": "", "id": 1856199, "coord": {"lat": 37.450001, "lon": 138.850006}, "name": "Nagaoka"}, {"country": "JP", "state": "", "id": 1856207, "coord": {"lat": 34.26667, "lon": 134.166672}, "name": "Nagao"}, {"country": "JP", "state": "", "id": 1856210, "coord": {"lat": 36.13464, "lon": 138.040771}, "name": "Nagano-ken"}, {"country": "JP", "state": "", "id": 1856212, "coord": {"lat": 36.549999, "lon": 138.633331}, "name": "Naganohara"}, {"country": "JP", "state": "", "id": 1856215, "coord": {"lat": 36.65139, "lon": 138.181107}, "name": "Nagano"}, {"country": "JP", "state": "", "id": 1856239, "coord": {"lat": 33.23333, "lon": 131.616669}, "name": "Nagahamamachi"}, {"country": "JP", "state": "", "id": 1856243, "coord": {"lat": 35.383331, "lon": 136.266663}, "name": "Nagahama"}, {"country": "JP", "state": "", "id": 1856293, "coord": {"lat": 34.616669, "lon": 136.083328}, "name": "Nabari"}, {"country": "JP", "state": "", "id": 1856300, "coord": {"lat": 34.966671, "lon": 134.916672}, "name": "My\u014drakujich\u014d"}, {"country": "JP", "state": "", "id": 1856367, "coord": {"lat": 35.706108, "lon": 139.559433}, "name": "Musashino"}, {"country": "JP", "state": "", "id": 1856386, "coord": {"lat": 33.283329, "lon": 134.149994}, "name": "Murotsu"}, {"country": "JP", "state": "", "id": 1856392, "coord": {"lat": 33.283329, "lon": 134.149994}, "name": "Muroto-misakicho"}, {"country": "JP", "state": "", "id": 1856426, "coord": {"lat": 37.683331, "lon": 139.183334}, "name": "Muramatsu"}, {"country": "JP", "state": "", "id": 1856434, "coord": {"lat": 38.23333, "lon": 139.483337}, "name": "Murakami"}, {"country": "JP", "state": "", "id": 1856435, "coord": {"lat": 36.166672, "lon": 137.966675}, "name": "Muraimachi-minami"}, {"country": "JP", "state": "", "id": 1856456, "coord": {"lat": 34.96545, "lon": 135.704147}, "name": "Muk\u014d"}, {"country": "JP", "state": "", "id": 1856472, "coord": {"lat": 36.633331, "lon": 136.633331}, "name": "Mukai-awagasaki"}, {"country": "JP", "state": "", "id": 1856476, "coord": {"lat": 37.066669, "lon": 138.883331}, "name": "Muikamachi"}, {"country": "JP", "state": "", "id": 1856488, "coord": {"lat": 33.666672, "lon": 134.416672}, "name": "Mugiura"}, {"country": "JP", "state": "", "id": 1856521, "coord": {"lat": 33.73333, "lon": 135.366669}, "name": "Motomachi"}, {"country": "JP", "state": "", "id": 1856524, "coord": {"lat": 35.150002, "lon": 138.649994}, "name": "Motoichiba"}, {"country": "JP", "state": "", "id": 1856531, "coord": {"lat": 32.966671, "lon": 129.800003}, "name": "Motogoe"}, {"country": "JP", "state": "", "id": 1856560, "coord": {"lat": 35.935558, "lon": 139.304443}, "name": "Morohong\u014d"}, {"country": "JP", "state": "", "id": 1856566, "coord": {"lat": 33.400002, "lon": 131.033325}, "name": "Yamakunimachi-morizane"}, {"country": "JP", "state": "", "id": 1856569, "coord": {"lat": 35.066669, "lon": 135.983337}, "name": "Moriyama"}, {"country": "JP", "state": "", "id": 1856584, "coord": {"lat": 34.73333, "lon": 135.566666}, "name": "Moriguchi"}, {"country": "JP", "state": "", "id": 1856586, "coord": {"lat": 34.833328, "lon": 137.933334}, "name": "Mori"}, {"country": "JP", "state": "", "id": 1856667, "coord": {"lat": 35.366669, "lon": 137.25}, "name": "Mizunami"}, {"country": "JP", "state": "", "id": 1856685, "coord": {"lat": 35.349998, "lon": 133.433334}, "name": "Mizoguchi"}, {"country": "JP", "state": "", "id": 1856697, "coord": {"lat": 35.083328, "lon": 137.066666}, "name": "Miyoshi-shi"}, {"country": "JP", "state": "", "id": 1856698, "coord": {"lat": 34.799999, "lon": 132.850006}, "name": "Miyoshi"}, {"country": "JP", "state": "", "id": 1856703, "coord": {"lat": 35.533329, "lon": 135.183334}, "name": "Miyazu"}, {"country": "JP", "state": "", "id": 1856710, "coord": {"lat": 32.198071, "lon": 131.297623}, "name": "Miyazaki"}, {"country": "JP", "state": "", "id": 1856717, "coord": {"lat": 31.91111, "lon": 131.423889}, "name": "Miyazaki"}, {"country": "JP", "state": "", "id": 1856764, "coord": {"lat": 36.316669, "lon": 139.199997}, "name": "Miyamaech\u014d"}, {"country": "JP", "state": "", "id": 1856775, "coord": {"lat": 31.73333, "lon": 131.066666}, "name": "Miyakonoj\u014d"}, {"country": "JP", "state": "", "id": 1856789, "coord": {"lat": 34.583328, "lon": 135.550003}, "name": "Miyake-naka"}, {"country": "JP", "state": "", "id": 1856798, "coord": {"lat": 34.30183, "lon": 132.326126}, "name": "Miyajima"}, {"country": "JP", "state": "", "id": 1856801, "coord": {"lat": 34.200001, "lon": 133.983337}, "name": "Miyaji"}, {"country": "JP", "state": "", "id": 1856826, "coord": {"lat": 35.76667, "lon": 137.949997}, "name": "Miyada"}, {"country": "JP", "state": "", "id": 1856828, "coord": {"lat": 33.716671, "lon": 130.666672}, "name": "Miyata"}, {"country": "JP", "state": "", "id": 1856845, "coord": {"lat": 36.666672, "lon": 138.199997}, "name": "Miwa"}, {"country": "JP", "state": "", "id": 1856878, "coord": {"lat": 37.533329, "lon": 138.933334}, "name": "Mitsuke"}, {"country": "JP", "state": "", "id": 1856881, "coord": {"lat": 36.01667, "lon": 139.983337}, "name": "Mitsukaid\u014d"}, {"country": "JP", "state": "", "id": 1856900, "coord": {"lat": 34.666672, "lon": 135.833328}, "name": "Mitsugarasu"}, {"country": "JP", "state": "", "id": 1856938, "coord": {"lat": 35.416672, "lon": 137.133331}, "name": "Mitake"}, {"country": "JP", "state": "", "id": 1856942, "coord": {"lat": 35.68351, "lon": 139.559631}, "name": "Mitaka-shi"}, {"country": "JP", "state": "", "id": 1856950, "coord": {"lat": 35.650002, "lon": 139.733337}, "name": "Mita"}, {"country": "JP", "state": "", "id": 1856977, "coord": {"lat": 35.116669, "lon": 138.916672}, "name": "Mishima"}, {"country": "JP", "state": "", "id": 1857036, "coord": {"lat": 36.383331, "lon": 138.949997}, "name": "Minowa"}, {"country": "JP", "state": "", "id": 1857046, "coord": {"lat": 34.826908, "lon": 135.470566}, "name": "Mino"}, {"country": "JP", "state": "", "id": 1857061, "coord": {"lat": 35.366669, "lon": 138.433334}, "name": "Minobu"}, {"country": "JP", "state": "", "id": 1857062, "coord": {"lat": 35.533329, "lon": 136.916672}, "name": "Mino"}, {"country": "JP", "state": "", "id": 1857089, "coord": {"lat": 33.033329, "lon": 130.449997}, "name": "Minatomachi"}, {"country": "JP", "state": "", "id": 1857105, "coord": {"lat": 35.21806, "lon": 139.887497}, "name": "Minato"}, {"country": "JP", "state": "", "id": 1857117, "coord": {"lat": 36.066669, "lon": 139.100006}, "name": "Minano"}, {"country": "JP", "state": "", "id": 1857140, "coord": {"lat": 35.73333, "lon": 139.816666}, "name": "Minamisenju"}, {"country": "JP", "state": "", "id": 1857144, "coord": {"lat": 35.48333, "lon": 139.449997}, "name": "Minamirinkan"}, {"country": "JP", "state": "", "id": 1857173, "coord": {"lat": 34.75, "lon": 135.933334}, "name": "Minamikasagi"}, {"country": "JP", "state": "", "id": 1857208, "coord": {"lat": 32.216671, "lon": 130.399994}, "name": "Minamata"}, {"country": "JP", "state": "", "id": 1857209, "coord": {"lat": 34.966671, "lon": 136.166672}, "name": "Minakuchich\u014d-matoba"}, {"country": "JP", "state": "", "id": 1857213, "coord": {"lat": 34.716671, "lon": 133.649994}, "name": "Minagi"}, {"country": "JP", "state": "", "id": 1857260, "coord": {"lat": 36.21706, "lon": 136.151855}, "name": "Mikuni"}, {"country": "JP", "state": "", "id": 1857276, "coord": {"lat": 34.799999, "lon": 134.983337}, "name": "Miki"}, {"country": "JP", "state": "", "id": 1857334, "coord": {"lat": 34.400002, "lon": 133.083328}, "name": "Mihara"}, {"country": "JP", "state": "", "id": 1857343, "coord": {"lat": 32.716671, "lon": 130.800003}, "name": "Mifune"}, {"country": "JP", "state": "", "id": 1857352, "coord": {"lat": 34.521229, "lon": 136.382965}, "name": "Mie-ken"}, {"country": "JP", "state": "", "id": 1857357, "coord": {"lat": 32.966671, "lon": 131.583328}, "name": "Mie"}, {"country": "JP", "state": "", "id": 1857379, "coord": {"lat": 36.416672, "lon": 139.800003}, "name": "Mibu"}, {"country": "JP", "state": "", "id": 1857403, "coord": {"lat": 36.216671, "lon": 139.383331}, "name": "Menuma"}, {"country": "JP", "state": "", "id": 1857441, "coord": {"lat": 34.549999, "lon": 136.516663}, "name": "Mayanoheta"}, {"country": "JP", "state": "", "id": 1857451, "coord": {"lat": 34.75, "lon": 138.783325}, "name": "Matsuzaki"}, {"country": "JP", "state": "", "id": 1857470, "coord": {"lat": 36.51667, "lon": 136.566666}, "name": "Matsut\u014d"}, {"country": "JP", "state": "", "id": 1857496, "coord": {"lat": 34.566669, "lon": 136.533325}, "name": "Matsuzaka-shi"}, {"country": "JP", "state": "", "id": 1857519, "coord": {"lat": 36.23333, "lon": 137.966675}, "name": "Matsumoto"}, {"country": "JP", "state": "", "id": 1857533, "coord": {"lat": 37.957779, "lon": 139.133331}, "name": "Matsugasakihama"}, {"country": "JP", "state": "", "id": 1857550, "coord": {"lat": 35.472221, "lon": 133.050568}, "name": "Matsue"}, {"country": "JP", "state": "", "id": 1857553, "coord": {"lat": 35.783329, "lon": 139.899994}, "name": "Matsudo"}, {"country": "JP", "state": "", "id": 1857560, "coord": {"lat": 32.650002, "lon": 130.666672}, "name": "Matsubase"}, {"country": "JP", "state": "", "id": 1857568, "coord": {"lat": 34.566669, "lon": 135.550003}, "name": "Matsubara"}, {"country": "JP", "state": "", "id": 1857578, "coord": {"lat": 34.25, "lon": 133.949997}, "name": "Matoba"}, {"country": "JP", "state": "", "id": 1857594, "coord": {"lat": 34.666672, "lon": 131.850006}, "name": "Masuda"}, {"country": "JP", "state": "", "id": 1857651, "coord": {"lat": 36.1534, "lon": 136.270294}, "name": "Maruoka"}, {"country": "JP", "state": "", "id": 1857654, "coord": {"lat": 35.683331, "lon": 139.766663}, "name": "Marunouchi"}, {"country": "JP", "state": "", "id": 1857659, "coord": {"lat": 36.316669, "lon": 138.266663}, "name": "Kamimaruko"}, {"country": "JP", "state": "", "id": 1857665, "coord": {"lat": 34.283329, "lon": 133.783325}, "name": "Marugame"}, {"country": "JP", "state": "", "id": 1857672, "coord": {"lat": 35.216671, "lon": 138.516663}, "name": "Manzawa"}, {"country": "JP", "state": "", "id": 1857689, "coord": {"lat": 34.066669, "lon": 134.566666}, "name": "Bandaich\u014d"}, {"country": "JP", "state": "", "id": 1857692, "coord": {"lat": 35.153889, "lon": 139.135559}, "name": "Manazuru"}, {"country": "JP", "state": "", "id": 1857706, "coord": {"lat": 36.566669, "lon": 136.633331}, "name": "Mameda-honmachi"}, {"country": "JP", "state": "", "id": 1857712, "coord": {"lat": 31.26667, "lon": 130.316666}, "name": "Makurazaki"}, {"country": "JP", "state": "", "id": 1857736, "coord": {"lat": 34.816669, "lon": 138.116669}, "name": "Makinohara"}, {"country": "JP", "state": "", "id": 1857751, "coord": {"lat": 37.75, "lon": 138.883331}, "name": "Maki"}, {"country": "JP", "state": "", "id": 1857766, "coord": {"lat": 35.450001, "lon": 135.333328}, "name": "Maizuru"}, {"country": "JP", "state": "", "id": 1857769, "coord": {"lat": 35.316669, "lon": 136.283325}, "name": "Maibara"}, {"country": "JP", "state": "", "id": 1857829, "coord": {"lat": 33.533329, "lon": 133.666672}, "name": "Maehama"}, {"country": "JP", "state": "", "id": 1857838, "coord": {"lat": 33.966671, "lon": 130.966675}, "name": "Maeda"}, {"country": "JP", "state": "", "id": 1857843, "coord": {"lat": 36.391109, "lon": 139.060837}, "name": "Maebashi"}, {"country": "JP", "state": "", "id": 1857844, "coord": {"lat": 33.549999, "lon": 130.199997}, "name": "Maebaru-ch\u016b\u014d"}, {"country": "JP", "state": "", "id": 1857871, "coord": {"lat": 35.540279, "lon": 139.450836}, "name": "Machida"}, {"country": "JP", "state": "", "id": 1857906, "coord": {"lat": 35.107368, "lon": 135.724014}, "name": "Ky\u014dto-shi"}, {"country": "JP", "state": "", "id": 1857907, "coord": {"lat": 35.254318, "lon": 135.441177}, "name": "Kyoto Prefecture"}, {"country": "JP", "state": "", "id": 1857910, "coord": {"lat": 35.021069, "lon": 135.753845}, "name": "Kyoto"}, {"country": "JP", "state": "", "id": 1857922, "coord": {"lat": 35.450001, "lon": 135.333328}, "name": "Ky\u014dguchi"}, {"country": "JP", "state": "", "id": 1857968, "coord": {"lat": 35.066669, "lon": 136.699997}, "name": "Kuwana"}, {"country": "JP", "state": "", "id": 1858025, "coord": {"lat": 34.799999, "lon": 135.416672}, "name": "Kushiro"}, {"country": "JP", "state": "", "id": 1858033, "coord": {"lat": 33.466671, "lon": 135.783325}, "name": "Kushimoto"}, {"country": "JP", "state": "", "id": 1858041, "coord": {"lat": 31.716669, "lon": 130.266663}, "name": "Kushikino"}, {"country": "JP", "state": "", "id": 1858067, "coord": {"lat": 35.01667, "lon": 135.966675}, "name": "Kusatsu"}, {"country": "JP", "state": "", "id": 1858088, "coord": {"lat": 33.316669, "lon": 130.516663}, "name": "Kurume"}, {"country": "JP", "state": "", "id": 1858249, "coord": {"lat": 35.349998, "lon": 136.783325}, "name": "Kuroda"}, {"country": "JP", "state": "", "id": 1858283, "coord": {"lat": 36.133331, "lon": 139.699997}, "name": "Kurihashi"}, {"country": "JP", "state": "", "id": 1858296, "coord": {"lat": 34.23333, "lon": 132.566666}, "name": "Kure"}, {"country": "JP", "state": "", "id": 1858301, "coord": {"lat": 35.433331, "lon": 133.816666}, "name": "Kurayoshi"}, {"country": "JP", "state": "", "id": 1858311, "coord": {"lat": 34.583328, "lon": 133.766663}, "name": "Kurashiki"}, {"country": "JP", "state": "", "id": 1858333, "coord": {"lat": 35.450001, "lon": 135.333328}, "name": "Kuradani"}, {"country": "JP", "state": "", "id": 1858373, "coord": {"lat": 27.41667, "lon": 128.683334}, "name": "Kunigami"}, {"country": "JP", "state": "", "id": 1858419, "coord": {"lat": 32.620491, "lon": 130.754303}, "name": "Kumamoto"}, {"country": "JP", "state": "", "id": 1858421, "coord": {"lat": 32.789719, "lon": 130.741669}, "name": "Kumamoto"}, {"country": "JP", "state": "", "id": 1858428, "coord": {"lat": 36.133331, "lon": 139.383331}, "name": "Kumagaya"}, {"country": "JP", "state": "", "id": 1858445, "coord": {"lat": 36.066669, "lon": 139.666672}, "name": "Kukich\u016b\u014d"}, {"country": "JP", "state": "", "id": 1858480, "coord": {"lat": 35.683331, "lon": 139.600006}, "name": "Kugayama"}, {"country": "JP", "state": "", "id": 1858486, "coord": {"lat": 34.083328, "lon": 132.083328}, "name": "Kugamachi"}, {"country": "JP", "state": "", "id": 1858492, "coord": {"lat": 34.283329, "lon": 135.566666}, "name": "Kudoyama"}, {"country": "JP", "state": "", "id": 1858498, "coord": {"lat": 34.0, "lon": 131.866669}, "name": "Kudamatsu"}, {"country": "JP", "state": "", "id": 1858591, "coord": {"lat": 34.799999, "lon": 137.358887}, "name": "Kozakai-ch\u014d"}, {"country": "JP", "state": "", "id": 1858667, "coord": {"lat": 34.183331, "lon": 133.816666}, "name": "Kotohira"}, {"country": "JP", "state": "", "id": 1858681, "coord": {"lat": 34.916672, "lon": 135.699997}, "name": "K\u014dtari"}, {"country": "JP", "state": "", "id": 1858695, "coord": {"lat": 36.716671, "lon": 137.100006}, "name": "Kuragaki-kosugi"}, {"country": "JP", "state": "", "id": 1858707, "coord": {"lat": 35.5, "lon": 133.25}, "name": "Ko-shinozu"}, {"country": "JP", "state": "", "id": 1858729, "coord": {"lat": 35.883331, "lon": 139.783325}, "name": "Koshigaya"}, {"country": "JP", "state": "", "id": 1858756, "coord": {"lat": 34.718399, "lon": 137.531754}, "name": "Kosai-shi"}, {"country": "JP", "state": "", "id": 1858794, "coord": {"lat": 36.049999, "lon": 139.516663}, "name": "K\u014dnosu"}, {"country": "JP", "state": "", "id": 1858836, "coord": {"lat": 35.33165, "lon": 136.870422}, "name": "K\u014dnan"}, {"country": "JP", "state": "", "id": 1858858, "coord": {"lat": 36.316669, "lon": 138.433334}, "name": "Komoro"}, {"country": "JP", "state": "", "id": 1858866, "coord": {"lat": 35.0, "lon": 136.516663}, "name": "Komono"}, {"country": "JP", "state": "", "id": 1858902, "coord": {"lat": 34.0, "lon": 134.583328}, "name": "Komatsushimach\u014d"}, {"country": "JP", "state": "", "id": 1858910, "coord": {"lat": 36.40263, "lon": 136.450882}, "name": "Komatsu"}, {"country": "JP", "state": "", "id": 1858926, "coord": {"lat": 35.283329, "lon": 136.916672}, "name": "Komaki"}, {"country": "JP", "state": "", "id": 1858937, "coord": {"lat": 36.349998, "lon": 139.133331}, "name": "Komagatamachi"}, {"country": "JP", "state": "", "id": 1858964, "coord": {"lat": 35.702221, "lon": 139.475555}, "name": "Kokubunji"}, {"country": "JP", "state": "", "id": 1858972, "coord": {"lat": 31.73333, "lon": 130.766663}, "name": "Kokubu-matsuki"}, {"country": "JP", "state": "", "id": 1859088, "coord": {"lat": 35.691391, "lon": 139.501114}, "name": "Koganei"}, {"country": "JP", "state": "", "id": 1859093, "coord": {"lat": 36.183331, "lon": 139.716675}, "name": "Koga"}, {"country": "JP", "state": "", "id": 1859094, "coord": {"lat": 33.73333, "lon": 130.466675}, "name": "Koga"}, {"country": "JP", "state": "", "id": 1859100, "coord": {"lat": 35.663891, "lon": 138.568329}, "name": "K\u014dfu"}, {"country": "JP", "state": "", "id": 1859113, "coord": {"lat": 36.183331, "lon": 139.133331}, "name": "Kodamach\u014d-kodamaminami"}, {"country": "JP", "state": "", "id": 1859116, "coord": {"lat": 35.726391, "lon": 139.483887}, "name": "Kodaira"}, {"country": "JP", "state": "", "id": 1859129, "coord": {"lat": 35.333328, "lon": 136.866669}, "name": "Kochino"}, {"country": "JP", "state": "", "id": 1859133, "coord": {"lat": 33.428009, "lon": 133.364014}, "name": "Kochi Prefecture"}, {"country": "JP", "state": "", "id": 1859143, "coord": {"lat": 34.700001, "lon": 138.933334}, "name": "K\u014dchi"}, {"country": "JP", "state": "", "id": 1859146, "coord": {"lat": 33.559719, "lon": 133.531113}, "name": "Kochi"}, {"country": "JP", "state": "", "id": 1859171, "coord": {"lat": 34.691299, "lon": 135.182999}, "name": "Kobe"}, {"country": "JP", "state": "", "id": 1859175, "coord": {"lat": 31.98333, "lon": 130.983337}, "name": "Kobayashi"}, {"country": "JP", "state": "", "id": 1859181, "coord": {"lat": 32.01667, "lon": 131.283325}, "name": "Kobaruyama"}, {"country": "JP", "state": "", "id": 1859224, "coord": {"lat": 32.783329, "lon": 130.816666}, "name": "Kiyama"}, {"country": "JP", "state": "", "id": 1859234, "coord": {"lat": 33.416672, "lon": 131.616669}, "name": "Kitsuki"}, {"country": "JP", "state": "", "id": 1859262, "coord": {"lat": 35.26667, "lon": 136.916672}, "name": "Kita-toyama"}, {"country": "JP", "state": "", "id": 1859307, "coord": {"lat": 33.833328, "lon": 130.833328}, "name": "Kitakyushu"}, {"country": "JP", "state": "", "id": 1859319, "coord": {"lat": 37.650002, "lon": 139.866669}, "name": "Kitakata"}, {"country": "JP", "state": "", "id": 1859335, "coord": {"lat": 35.166672, "lon": 135.916672}, "name": "Kitahama"}, {"country": "JP", "state": "", "id": 1859363, "coord": {"lat": 36.716671, "lon": 137.166672}, "name": "Kitadaishin"}, {"country": "JP", "state": "", "id": 1859383, "coord": {"lat": 34.466671, "lon": 135.366669}, "name": "Kishiwada"}, {"country": "JP", "state": "", "id": 1859393, "coord": {"lat": 35.374722, "lon": 139.922501}, "name": "Kisarazu"}, {"country": "JP", "state": "", "id": 1859400, "coord": {"lat": 36.099998, "lon": 139.583328}, "name": "Kisai"}, {"country": "JP", "state": "", "id": 1859405, "coord": {"lat": 36.400002, "lon": 139.333328}, "name": "Kiry\u016b"}, {"country": "JP", "state": "", "id": 1859420, "coord": {"lat": 33.333328, "lon": 134.100006}, "name": "Kiragawach\u014d"}, {"country": "JP", "state": "", "id": 1859462, "coord": {"lat": 26.452221, "lon": 127.917778}, "name": "Kin"}, {"country": "JP", "state": "", "id": 1859472, "coord": {"lat": 34.183331, "lon": 135.199997}, "name": "Kimiidera"}, {"country": "JP", "state": "", "id": 1859479, "coord": {"lat": 35.5, "lon": 139.633331}, "name": "Kikuna"}, {"country": "JP", "state": "", "id": 1859492, "coord": {"lat": 32.98333, "lon": 130.816666}, "name": "Kikuchi"}, {"country": "JP", "state": "", "id": 1859586, "coord": {"lat": 36.116669, "lon": 139.600006}, "name": "Kazo"}, {"country": "JP", "state": "", "id": 1859619, "coord": {"lat": 33.066669, "lon": 129.866669}, "name": "Kawatana"}, {"country": "JP", "state": "", "id": 1859642, "coord": {"lat": 35.520561, "lon": 139.717224}, "name": "Kawasaki"}, {"country": "JP", "state": "", "id": 1859647, "coord": {"lat": 33.583328, "lon": 130.833328}, "name": "Kawasaki"}, {"country": "JP", "state": "", "id": 1859675, "coord": {"lat": 34.816669, "lon": 135.416672}, "name": "Kawanishi"}, {"country": "JP", "state": "", "id": 1859687, "coord": {"lat": 34.98333, "lon": 132.5}, "name": "Kawamoto"}, {"country": "JP", "state": "", "id": 1859716, "coord": {"lat": 34.23333, "lon": 135.850006}, "name": "Kawai"}, {"country": "JP", "state": "", "id": 1859730, "coord": {"lat": 35.805, "lon": 139.720566}, "name": "Kawaguchi"}, {"country": "JP", "state": "", "id": 1859740, "coord": {"lat": 35.908611, "lon": 139.485275}, "name": "Kawagoe"}, {"country": "JP", "state": "", "id": 1859765, "coord": {"lat": 36.061729, "lon": 136.501007}, "name": "Katsuyama"}, {"country": "JP", "state": "", "id": 1859842, "coord": {"lat": 35.31694, "lon": 139.474442}, "name": "Katase"}, {"country": "JP", "state": "", "id": 1859884, "coord": {"lat": 35.976391, "lon": 139.753616}, "name": "Kasukabe"}, {"country": "JP", "state": "", "id": 1859891, "coord": {"lat": 35.24762, "lon": 136.97229}, "name": "Kasugai"}, {"country": "JP", "state": "", "id": 1859895, "coord": {"lat": 33.533329, "lon": 130.466675}, "name": "Kasugabaru"}, {"country": "JP", "state": "", "id": 1859900, "coord": {"lat": 33.033329, "lon": 130.050003}, "name": "Kasuga"}, {"country": "JP", "state": "", "id": 1859908, "coord": {"lat": 37.366669, "lon": 138.550003}, "name": "Kashiwazaki"}, {"country": "JP", "state": "", "id": 1859913, "coord": {"lat": 34.450001, "lon": 135.766663}, "name": "Kashiwara"}, {"country": "JP", "state": "", "id": 1859914, "coord": {"lat": 34.316669, "lon": 136.399994}, "name": "Kashiwano"}, {"country": "JP", "state": "", "id": 1859924, "coord": {"lat": 35.854439, "lon": 139.968887}, "name": "Kashiwa"}, {"country": "JP", "state": "", "id": 1859941, "coord": {"lat": 33.10611, "lon": 130.090561}, "name": "Kashima"}, {"country": "JP", "state": "", "id": 1859951, "coord": {"lat": 34.508961, "lon": 135.792892}, "name": "Kashihara-shi"}, {"country": "JP", "state": "", "id": 1859952, "coord": {"lat": 34.583328, "lon": 135.616669}, "name": "Kashihara"}, {"country": "JP", "state": "", "id": 1859964, "coord": {"lat": 31.41667, "lon": 130.316666}, "name": "Kaseda-shirakame"}, {"country": "JP", "state": "", "id": 1859990, "coord": {"lat": 34.5, "lon": 133.5}, "name": "Kasaoka"}, {"country": "JP", "state": "", "id": 1859998, "coord": {"lat": 35.366669, "lon": 136.766663}, "name": "Kasamatsuch\u014d"}, {"country": "JP", "state": "", "id": 1860031, "coord": {"lat": 35.533329, "lon": 134.183334}, "name": "Karoch\u014d"}, {"country": "JP", "state": "", "id": 1860034, "coord": {"lat": 34.98333, "lon": 136.983337}, "name": "Kariya"}, {"country": "JP", "state": "", "id": 1860039, "coord": {"lat": 37.429749, "lon": 138.61879}, "name": "Kariwa"}, {"country": "JP", "state": "", "id": 1860063, "coord": {"lat": 33.442501, "lon": 129.969727}, "name": "Karatsu"}, {"country": "JP", "state": "", "id": 1860095, "coord": {"lat": 33.299999, "lon": 130.366669}, "name": "Kanzakimachi-kanzaki"}, {"country": "JP", "state": "", "id": 1860098, "coord": {"lat": 36.549999, "lon": 139.733337}, "name": "Kanuma"}, {"country": "JP", "state": "", "id": 1860112, "coord": {"lat": 31.383329, "lon": 130.850006}, "name": "Kanoya"}, {"country": "JP", "state": "", "id": 1860122, "coord": {"lat": 34.116669, "lon": 133.649994}, "name": "Kan\u2019onjich\u014d"}, {"country": "JP", "state": "", "id": 1860176, "coord": {"lat": 34.533329, "lon": 133.383331}, "name": "Kannabech\u014d-yahiro"}, {"country": "JP", "state": "", "id": 1860191, "coord": {"lat": 35.133331, "lon": 136.800003}, "name": "Kanie"}, {"country": "JP", "state": "", "id": 1860211, "coord": {"lat": 36.400002, "lon": 139.0}, "name": "Kanekomachi"}, {"country": "JP", "state": "", "id": 1860234, "coord": {"lat": 33.783329, "lon": 130.983337}, "name": "Kanda"}, {"country": "JP", "state": "", "id": 1860239, "coord": {"lat": 36.213261, "lon": 136.230804}, "name": "Kanazu"}, {"country": "JP", "state": "", "id": 1860243, "coord": {"lat": 36.59444, "lon": 136.625565}, "name": "Kanazawa"}, {"country": "JP", "state": "", "id": 1860244, "coord": {"lat": 35.349998, "lon": 139.633331}, "name": "Kanazawach\u014d"}, {"country": "JP", "state": "", "id": 1860250, "coord": {"lat": 33.683331, "lon": 135.350006}, "name": "Kanayama"}, {"country": "JP", "state": "", "id": 1860256, "coord": {"lat": 34.816669, "lon": 138.133331}, "name": "Kanaya"}, {"country": "JP", "state": "", "id": 1860291, "coord": {"lat": 35.417461, "lon": 139.338852}, "name": "Kanagawa"}, {"country": "JP", "state": "", "id": 1860293, "coord": {"lat": 34.799999, "lon": 133.933334}, "name": "Mitsu-kanagawa"}, {"country": "JP", "state": "", "id": 1860310, "coord": {"lat": 35.283329, "lon": 139.183334}, "name": "Kamonomiya"}, {"country": "JP", "state": "", "id": 1860321, "coord": {"lat": 34.066669, "lon": 134.350006}, "name": "Kamojimach\u014d-j\u014dgejima"}, {"country": "JP", "state": "", "id": 1860335, "coord": {"lat": 34.533329, "lon": 133.583328}, "name": "Kamogatach\u014d-kamogata"}, {"country": "JP", "state": "", "id": 1860341, "coord": {"lat": 37.650002, "lon": 139.050003}, "name": "Kamo"}, {"country": "JP", "state": "", "id": 1860380, "coord": {"lat": 35.316669, "lon": 133.116669}, "name": "Hirosech\u014d-kamiyamasa"}, {"country": "JP", "state": "", "id": 1860437, "coord": {"lat": 35.683331, "lon": 139.550003}, "name": "Kamirenjaku"}, {"country": "JP", "state": "", "id": 1860458, "coord": {"lat": 36.433331, "lon": 139.916672}, "name": "Kaminokawa"}, {"country": "JP", "state": "", "id": 1860483, "coord": {"lat": 34.400002, "lon": 132.449997}, "name": "Kami-nagarekawach\u014d"}, {"country": "JP", "state": "", "id": 1860521, "coord": {"lat": 33.828579, "lon": 130.760193}, "name": "Kamik\u014djaku"}, {"country": "JP", "state": "", "id": 1860563, "coord": {"lat": 36.700001, "lon": 137.366669}, "name": "Kamiichi"}, {"country": "JP", "state": "", "id": 1860588, "coord": {"lat": 34.866669, "lon": 134.366669}, "name": "Kamig\u014dri"}, {"country": "JP", "state": "", "id": 1860626, "coord": {"lat": 34.849998, "lon": 136.449997}, "name": "Kameyama"}, {"country": "JP", "state": "", "id": 1860635, "coord": {"lat": 35.0, "lon": 135.583328}, "name": "Kameoka"}, {"country": "JP", "state": "", "id": 1860648, "coord": {"lat": 37.866669, "lon": 139.116669}, "name": "Kameda-honch\u014d"}, {"country": "JP", "state": "", "id": 1860649, "coord": {"lat": 35.75, "lon": 139.850006}, "name": "Kameari"}, {"country": "JP", "state": "", "id": 1860672, "coord": {"lat": 35.308891, "lon": 139.550278}, "name": "Kamakura"}, {"country": "JP", "state": "", "id": 1860704, "coord": {"lat": 34.76667, "lon": 134.850006}, "name": "Kakogawach\u014d-honmachi"}, {"country": "JP", "state": "", "id": 1860728, "coord": {"lat": 34.76667, "lon": 138.016663}, "name": "Kakegawa"}, {"country": "JP", "state": "", "id": 1860735, "coord": {"lat": 35.416672, "lon": 136.866669}, "name": "Kakamigahara"}, {"country": "JP", "state": "", "id": 1860748, "coord": {"lat": 35.965359, "lon": 140.644745}, "name": "Kashima-shi"}, {"country": "JP", "state": "", "id": 1860750, "coord": {"lat": 31.73333, "lon": 130.666672}, "name": "Kajiki"}, {"country": "JP", "state": "", "id": 1860765, "coord": {"lat": 34.450001, "lon": 135.350006}, "name": "Kaizuka"}, {"country": "JP", "state": "", "id": 1860785, "coord": {"lat": 34.150002, "lon": 135.199997}, "name": "Kainan"}, {"country": "JP", "state": "", "id": 1860797, "coord": {"lat": 34.666672, "lon": 133.916672}, "name": "Kaigand\u014dri"}, {"country": "JP", "state": "", "id": 1860825, "coord": {"lat": 31.032249, "lon": 130.432922}, "name": "Kagoshima-ken"}, {"country": "JP", "state": "", "id": 1860827, "coord": {"lat": 31.560181, "lon": 130.558136}, "name": "Kagoshima"}, {"country": "JP", "state": "", "id": 1860834, "coord": {"lat": 34.247169, "lon": 133.994705}, "name": "Kagawa-ken"}, {"country": "JP", "state": "", "id": 1860841, "coord": {"lat": 34.116669, "lon": 134.583328}, "name": "Kagasuno"}, {"country": "JP", "state": "", "id": 1860847, "coord": {"lat": 26.200001, "lon": 127.650002}, "name": "Kagamizu"}, {"country": "JP", "state": "", "id": 1860871, "coord": {"lat": 34.73333, "lon": 135.583328}, "name": "Kadoma"}, {"country": "JP", "state": "", "id": 1860875, "coord": {"lat": 32.466671, "lon": 131.649994}, "name": "Kadogawa"}, {"country": "JP", "state": "", "id": 1860876, "coord": {"lat": 34.783329, "lon": 133.850006}, "name": "Kado"}, {"country": "JP", "state": "", "id": 1860887, "coord": {"lat": 35.23333, "lon": 136.949997}, "name": "Kachikawa"}, {"country": "JP", "state": "", "id": 1860941, "coord": {"lat": 30.6, "lon": 130.983337}, "name": "J\u016brokuban"}, {"country": "JP", "state": "", "id": 1861006, "coord": {"lat": 37.616669, "lon": 138.850006}, "name": "Jiz\u014dd\u014d"}, {"country": "JP", "state": "", "id": 1861036, "coord": {"lat": 34.783329, "lon": 135.533325}, "name": "Terauchi"}, {"country": "JP", "state": "", "id": 1861049, "coord": {"lat": 34.333328, "lon": 132.316666}, "name": "Jigozen"}, {"country": "JP", "state": "", "id": 1861060, "coord": {"lat": 35.68536, "lon": 139.753098}, "name": "Japan"}, {"country": "JP", "state": "", "id": 1861084, "coord": {"lat": 35.366669, "lon": 132.766663}, "name": "Izumo"}, {"country": "JP", "state": "", "id": 1861095, "coord": {"lat": 34.5, "lon": 135.399994}, "name": "Izumi\u014dtsu"}, {"country": "JP", "state": "", "id": 1861107, "coord": {"lat": 34.48333, "lon": 135.433334}, "name": "Izumi"}, {"country": "JP", "state": "", "id": 1861108, "coord": {"lat": 32.083328, "lon": 130.366669}, "name": "Izumi"}, {"country": "JP", "state": "", "id": 1861116, "coord": {"lat": 34.201389, "lon": 129.287216}, "name": "Izuhara"}, {"country": "JP", "state": "", "id": 1861124, "coord": {"lat": 26.916269, "lon": 127.933563}, "name": "Izena"}, {"country": "JP", "state": "", "id": 1861164, "coord": {"lat": 35.94278, "lon": 139.69194}, "name": "Iwatsuki"}, {"country": "JP", "state": "", "id": 1861171, "coord": {"lat": 34.700001, "lon": 137.850006}, "name": "Iwata"}, {"country": "JP", "state": "", "id": 1861189, "coord": {"lat": 34.049999, "lon": 135.333328}, "name": "Iwanogawa"}, {"country": "JP", "state": "", "id": 1861202, "coord": {"lat": 34.783329, "lon": 134.533325}, "name": "Mitsuch\u014d-iwami"}, {"country": "JP", "state": "", "id": 1861207, "coord": {"lat": 35.283329, "lon": 136.866669}, "name": "Iwakura"}, {"country": "JP", "state": "", "id": 1861212, "coord": {"lat": 34.150002, "lon": 132.183334}, "name": "Iwakuni"}, {"country": "JP", "state": "", "id": 1861223, "coord": {"lat": 36.049999, "lon": 139.899994}, "name": "Iwai"}, {"country": "JP", "state": "", "id": 1861244, "coord": {"lat": 34.25, "lon": 135.316666}, "name": "Iwade"}, {"country": "JP", "state": "", "id": 1861261, "coord": {"lat": 35.725281, "lon": 139.217773}, "name": "Itsukaichi"}, {"country": "JP", "state": "", "id": 1861280, "coord": {"lat": 26.12472, "lon": 127.669441}, "name": "Itoman"}, {"country": "JP", "state": "", "id": 1861285, "coord": {"lat": 37.033329, "lon": 137.850006}, "name": "Itoigawa"}, {"country": "JP", "state": "", "id": 1861290, "coord": {"lat": 34.966671, "lon": 139.083328}, "name": "It\u014d"}, {"country": "JP", "state": "", "id": 1861296, "coord": {"lat": 33.566669, "lon": 130.449997}, "name": "Itazuke"}, {"country": "JP", "state": "", "id": 1861305, "coord": {"lat": 34.01667, "lon": 133.783325}, "name": "Ikedach\u014d-itano"}, {"country": "JP", "state": "", "id": 1861310, "coord": {"lat": 34.784271, "lon": 135.40126}, "name": "Itami"}, {"country": "JP", "state": "", "id": 1861314, "coord": {"lat": 34.666672, "lon": 133.833328}, "name": "Itakura"}, {"country": "JP", "state": "", "id": 1861336, "coord": {"lat": 34.79689, "lon": 135.355606}, "name": "Isoshi"}, {"country": "JP", "state": "", "id": 1861383, "coord": {"lat": 34.799999, "lon": 137.016663}, "name": "Ishiki"}, {"country": "JP", "state": "", "id": 1861387, "coord": {"lat": 36.77145, "lon": 136.770493}, "name": "Ishikawa-ken"}, {"country": "JP", "state": "", "id": 1861393, "coord": {"lat": 26.42333, "lon": 127.821388}, "name": "Ishikawa"}, {"country": "JP", "state": "", "id": 1861400, "coord": {"lat": 34.066669, "lon": 134.433334}, "name": "Ishii"}, {"country": "JP", "state": "", "id": 1861406, "coord": {"lat": 36.116669, "lon": 139.966675}, "name": "Ishige"}, {"country": "JP", "state": "", "id": 1861416, "coord": {"lat": 24.34478, "lon": 124.157173}, "name": "Ishigaki"}, {"country": "JP", "state": "", "id": 1861436, "coord": {"lat": 36.316669, "lon": 139.199997}, "name": "Isesaki"}, {"country": "JP", "state": "", "id": 1861449, "coord": {"lat": 35.39056, "lon": 139.307785}, "name": "Isehara"}, {"country": "JP", "state": "", "id": 1861450, "coord": {"lat": 34.48333, "lon": 136.699997}, "name": "Ise"}, {"country": "JP", "state": "", "id": 1861454, "coord": {"lat": 35.650002, "lon": 138.633331}, "name": "Isawa"}, {"country": "JP", "state": "", "id": 1861464, "coord": {"lat": 32.84111, "lon": 130.04306}, "name": "Isahaya"}, {"country": "JP", "state": "", "id": 1861528, "coord": {"lat": 35.379951, "lon": 136.942947}, "name": "Inuyama"}, {"country": "JP", "state": "", "id": 1861584, "coord": {"lat": 33.549999, "lon": 133.433334}, "name": "Ino"}, {"country": "JP", "state": "", "id": 1861586, "coord": {"lat": 34.283329, "lon": 133.183334}, "name": "Innoshima"}, {"country": "JP", "state": "", "id": 1861598, "coord": {"lat": 33.73333, "lon": 129.75}, "name": "Ishidach\u014d-ind\u014djiura"}, {"country": "JP", "state": "", "id": 1861602, "coord": {"lat": 35.25, "lon": 136.783325}, "name": "Inazawa"}, {"country": "JP", "state": "", "id": 1861641, "coord": {"lat": 35.82756, "lon": 137.953781}, "name": "Ina"}, {"country": "JP", "state": "", "id": 1861642, "coord": {"lat": 35.716671, "lon": 139.25}, "name": "Ina"}, {"country": "JP", "state": "", "id": 1861661, "coord": {"lat": 36.166672, "lon": 133.316666}, "name": "Imazu"}, {"country": "JP", "state": "", "id": 1861677, "coord": {"lat": 33.26667, "lon": 129.883331}, "name": "Imarich\u014d-k\u014d"}, {"country": "JP", "state": "", "id": 1861699, "coord": {"lat": 36.716671, "lon": 139.683334}, "name": "Imaichi"}, {"country": "JP", "state": "", "id": 1861749, "coord": {"lat": 34.683331, "lon": 135.699997}, "name": "Ikoma"}, {"country": "JP", "state": "", "id": 1861793, "coord": {"lat": 36.416672, "lon": 137.883331}, "name": "Ikeda"}, {"country": "JP", "state": "", "id": 1861795, "coord": {"lat": 34.822079, "lon": 135.429794}, "name": "Ikeda"}, {"country": "JP", "state": "", "id": 1861797, "coord": {"lat": 34.73333, "lon": 137.816666}, "name": "Ikeda"}, {"country": "JP", "state": "", "id": 1861799, "coord": {"lat": 34.01667, "lon": 133.800003}, "name": "Ikedach\u014d"}, {"country": "JP", "state": "", "id": 1861816, "coord": {"lat": 34.833328, "lon": 134.583328}, "name": "Ikaruga"}, {"country": "JP", "state": "", "id": 1861825, "coord": {"lat": 31.616671, "lon": 130.399994}, "name": "Ij\u016bin"}, {"country": "JP", "state": "", "id": 1861835, "coord": {"lat": 33.633331, "lon": 130.683334}, "name": "Iizuka"}, {"country": "JP", "state": "", "id": 1861838, "coord": {"lat": 36.849998, "lon": 138.366669}, "name": "Iiyama"}, {"country": "JP", "state": "", "id": 1861853, "coord": {"lat": 35.299999, "lon": 137.883331}, "name": "Iijima"}, {"country": "JP", "state": "", "id": 1861864, "coord": {"lat": 35.51965, "lon": 137.82074}, "name": "Iida"}, {"country": "JP", "state": "", "id": 1861901, "coord": {"lat": 34.768551, "lon": 136.130127}, "name": "Iga-shi"}, {"country": "JP", "state": "", "id": 1861903, "coord": {"lat": 32.51667, "lon": 131.666672}, "name": "Ifukugata"}, {"country": "JP", "state": "", "id": 1861949, "coord": {"lat": 35.299999, "lon": 136.800003}, "name": "Ichinomiya"}, {"country": "JP", "state": "", "id": 1861950, "coord": {"lat": 34.033329, "lon": 134.466675}, "name": "Ichinomiyach\u014d"}, {"country": "JP", "state": "", "id": 1861968, "coord": {"lat": 35.719719, "lon": 139.924713}, "name": "Ichikawa"}, {"country": "JP", "state": "", "id": 1862010, "coord": {"lat": 31.23333, "lon": 130.649994}, "name": "Ibusuki"}, {"country": "JP", "state": "", "id": 1862033, "coord": {"lat": 34.81641, "lon": 135.568283}, "name": "Ibaraki"}, {"country": "JP", "state": "", "id": 1862034, "coord": {"lat": 34.599998, "lon": 133.466675}, "name": "Ibara"}, {"country": "JP", "state": "", "id": 1862047, "coord": {"lat": 35.040321, "lon": 134.825974}, "name": "Hy\u014dgo"}, {"country": "JP", "state": "", "id": 1862098, "coord": {"lat": 36.3396, "lon": 137.882538}, "name": "Hotaka"}, {"country": "JP", "state": "", "id": 1862136, "coord": {"lat": 34.616669, "lon": 135.733337}, "name": "H\u014dry\u016bji"}, {"country": "JP", "state": "", "id": 1862143, "coord": {"lat": 35.683331, "lon": 139.649994}, "name": "Horinouchi"}, {"country": "JP", "state": "", "id": 1862197, "coord": {"lat": 35.416672, "lon": 136.75}, "name": "Honj\u014dch\u014d"}, {"country": "JP", "state": "", "id": 1862198, "coord": {"lat": 36.23333, "lon": 139.183334}, "name": "Honj\u014d"}, {"country": "JP", "state": "", "id": 1862230, "coord": {"lat": 32.450001, "lon": 130.199997}, "name": "Hondomachi-hondo"}, {"country": "JP", "state": "", "id": 1862291, "coord": {"lat": 34.98333, "lon": 139.866669}, "name": "H\u014dj\u014d"}, {"country": "JP", "state": "", "id": 1862292, "coord": {"lat": 34.933331, "lon": 134.833328}, "name": "H\u014dj\u014dch\u014d-h\u014dj\u014d"}, {"country": "JP", "state": "", "id": 1862302, "coord": {"lat": 34.049999, "lon": 131.566666}, "name": "H\u014dfu"}, {"country": "JP", "state": "", "id": 1862352, "coord": {"lat": 32.216671, "lon": 130.75}, "name": "Hitoyoshi"}, {"country": "JP", "state": "", "id": 1862363, "coord": {"lat": 36.23333, "lon": 137.533325}, "name": "Okuhida-onseng\u014d-hitoegane"}, {"country": "JP", "state": "", "id": 1862373, "coord": {"lat": 33.316669, "lon": 130.933334}, "name": "Hita"}, {"country": "JP", "state": "", "id": 1862389, "coord": {"lat": 34.666672, "lon": 136.466675}, "name": "Hisai-motomachi"}, {"country": "JP", "state": "", "id": 1862413, "coord": {"lat": 34.606731, "lon": 132.785431}, "name": "Hiroshima-ken"}, {"country": "JP", "state": "", "id": 1862415, "coord": {"lat": 34.396271, "lon": 132.459366}, "name": "Hiroshima"}, {"country": "JP", "state": "", "id": 1862444, "coord": {"lat": 33.116669, "lon": 130.966675}, "name": "Hirokawa"}, {"country": "JP", "state": "", "id": 1862462, "coord": {"lat": 35.323059, "lon": 139.342224}, "name": "Hiratsuka"}, {"country": "JP", "state": "", "id": 1862471, "coord": {"lat": 35.433331, "lon": 132.816666}, "name": "Hiratach\u014d"}, {"country": "JP", "state": "", "id": 1862505, "coord": {"lat": 24.799999, "lon": 125.283333}, "name": "Hirara"}, {"country": "JP", "state": "", "id": 1862513, "coord": {"lat": 33.938332, "lon": 132.071671}, "name": "Hirao"}, {"country": "JP", "state": "", "id": 1862539, "coord": {"lat": 35.933331, "lon": 139.550003}, "name": "Hirakata"}, {"country": "JP", "state": "", "id": 1862540, "coord": {"lat": 34.813519, "lon": 135.649139}, "name": "Hirakata"}, {"country": "JP", "state": "", "id": 1862554, "coord": {"lat": 32.75, "lon": 129.866669}, "name": "Hiradogoyamachi"}, {"country": "JP", "state": "", "id": 1862555, "coord": {"lat": 33.359718, "lon": 129.553055}, "name": "Hirado"}, {"country": "JP", "state": "", "id": 1862569, "coord": {"lat": 31.58333, "lon": 130.350006}, "name": "Hioki"}, {"country": "JP", "state": "", "id": 1862588, "coord": {"lat": 32.650002, "lon": 131.399994}, "name": "Hinokage"}, {"country": "JP", "state": "", "id": 1862599, "coord": {"lat": 35.673061, "lon": 139.400284}, "name": "Hino"}, {"country": "JP", "state": "", "id": 1862601, "coord": {"lat": 35.0, "lon": 136.25}, "name": "Hino"}, {"country": "JP", "state": "", "id": 1862612, "coord": {"lat": 36.849998, "lon": 136.983337}, "name": "Himimachi"}, {"country": "JP", "state": "", "id": 1862627, "coord": {"lat": 34.816669, "lon": 134.699997}, "name": "Himeji"}, {"country": "JP", "state": "", "id": 1862633, "coord": {"lat": 33.48333, "lon": 130.899994}, "name": "Hikosan"}, {"country": "JP", "state": "", "id": 1862636, "coord": {"lat": 35.25, "lon": 136.25}, "name": "Hikone"}, {"country": "JP", "state": "", "id": 1862689, "coord": {"lat": 33.366669, "lon": 131.533325}, "name": "Hiji"}, {"country": "JP", "state": "", "id": 1862732, "coord": {"lat": 33.200001, "lon": 130.199997}, "name": "Suminoe-higashi"}, {"country": "JP", "state": "", "id": 1862739, "coord": {"lat": 35.599998, "lon": 139.733337}, "name": "Higashishinagawa"}, {"country": "JP", "state": "", "id": 1862752, "coord": {"lat": 34.666672, "lon": 135.583328}, "name": "Higashi-\u014dsaka"}, {"country": "JP", "state": "", "id": 1862782, "coord": {"lat": 34.400002, "lon": 133.083328}, "name": "Higashimachi"}, {"country": "JP", "state": "", "id": 1862818, "coord": {"lat": 37.916672, "lon": 139.050003}, "name": "Higashiborid\u014dri"}, {"country": "JP", "state": "", "id": 1862845, "coord": {"lat": 35.466671, "lon": 133.066666}, "name": "Higashiasahimachi"}, {"country": "JP", "state": "", "id": 1862855, "coord": {"lat": 26.576389, "lon": 127.22139}, "name": "Higashi"}, {"country": "JP", "state": "", "id": 1862912, "coord": {"lat": 34.883331, "lon": 136.983337}, "name": "Hekinan"}, {"country": "JP", "state": "", "id": 1862944, "coord": {"lat": 34.966671, "lon": 138.766663}, "name": "Heda"}, {"country": "JP", "state": "", "id": 1862971, "coord": {"lat": 34.599998, "lon": 133.833328}, "name": "Hayashima"}, {"country": "JP", "state": "", "id": 1862978, "coord": {"lat": 35.216671, "lon": 139.633331}, "name": "Hayashi"}, {"country": "JP", "state": "", "id": 1862992, "coord": {"lat": 35.26667, "lon": 139.583328}, "name": "Hayama"}, {"country": "JP", "state": "", "id": 1862998, "coord": {"lat": 35.450001, "lon": 138.350006}, "name": "Hayakawa"}, {"country": "JP", "state": "", "id": 1863018, "coord": {"lat": 34.349998, "lon": 132.333328}, "name": "Hatsukaichi"}, {"country": "JP", "state": "", "id": 1863023, "coord": {"lat": 35.834171, "lon": 139.736389}, "name": "Hatogaya-honch\u014d"}, {"country": "JP", "state": "", "id": 1863051, "coord": {"lat": 33.98333, "lon": 130.933334}, "name": "Hatabuch\u014d"}, {"country": "JP", "state": "", "id": 1863077, "coord": {"lat": 34.566669, "lon": 135.75}, "name": "Hashio"}, {"country": "JP", "state": "", "id": 1863082, "coord": {"lat": 34.316669, "lon": 135.616669}, "name": "Hashimoto"}, {"country": "JP", "state": "", "id": 1863130, "coord": {"lat": 34.916672, "lon": 137.149994}, "name": "Harisakich\u014d"}, {"country": "JP", "state": "", "id": 1863140, "coord": {"lat": 35.866669, "lon": 139.633331}, "name": "Harigaya"}, {"country": "JP", "state": "", "id": 1863161, "coord": {"lat": 35.966671, "lon": 138.550003}, "name": "Hara"}, {"country": "JP", "state": "", "id": 1863173, "coord": {"lat": 36.166672, "lon": 139.533325}, "name": "Hany\u016b"}, {"country": "JP", "state": "", "id": 1863183, "coord": {"lat": 35.85194, "lon": 139.318054}, "name": "Hann\u014d"}, {"country": "JP", "state": "", "id": 1863209, "coord": {"lat": 34.883331, "lon": 136.933334}, "name": "Handa"}, {"country": "JP", "state": "", "id": 1863218, "coord": {"lat": 34.900002, "lon": 138.333328}, "name": "Hanazawa"}, {"country": "JP", "state": "", "id": 1863219, "coord": {"lat": 36.549999, "lon": 139.883331}, "name": "Hanawadamachi"}, {"country": "JP", "state": "", "id": 1863250, "coord": {"lat": 32.799999, "lon": 130.699997}, "name": "Hanabatach\u014d"}, {"country": "JP", "state": "", "id": 1863276, "coord": {"lat": 33.883331, "lon": 135.149994}, "name": "Hamanose"}, {"country": "JP", "state": "", "id": 1863279, "coord": {"lat": 31.716669, "lon": 130.733337}, "name": "Hamanoichi"}, {"country": "JP", "state": "", "id": 1863282, "coord": {"lat": 38.816669, "lon": 139.783325}, "name": "Hamanaka"}, {"country": "JP", "state": "", "id": 1863289, "coord": {"lat": 34.700001, "lon": 137.733337}, "name": "Hamamatsu"}, {"country": "JP", "state": "", "id": 1863293, "coord": {"lat": 34.799999, "lon": 137.783325}, "name": "Hamakita"}, {"country": "JP", "state": "", "id": 1863310, "coord": {"lat": 34.883331, "lon": 132.083328}, "name": "Hamada"}, {"country": "JP", "state": "", "id": 1863341, "coord": {"lat": 36.883331, "lon": 136.783325}, "name": "Hakui"}, {"country": "JP", "state": "", "id": 1863356, "coord": {"lat": 35.76944, "lon": 139.351105}, "name": "Hakonegasaki"}, {"country": "JP", "state": "", "id": 1863357, "coord": {"lat": 35.183331, "lon": 139.033325}, "name": "Hakone"}, {"country": "JP", "state": "", "id": 1863385, "coord": {"lat": 33.200001, "lon": 130.5}, "name": "Hainuzuka"}, {"country": "JP", "state": "", "id": 1863398, "coord": {"lat": 34.533329, "lon": 135.949997}, "name": "Haibara-akanedai"}, {"country": "JP", "state": "", "id": 1863410, "coord": {"lat": 36.666672, "lon": 137.199997}, "name": "Hagiwara"}, {"country": "JP", "state": "", "id": 1863418, "coord": {"lat": 34.400002, "lon": 131.416672}, "name": "Hagi"}, {"country": "JP", "state": "", "id": 1863426, "coord": {"lat": 26.336941, "lon": 127.871941}, "name": "Katsuren-haebaru"}, {"country": "JP", "state": "", "id": 1863431, "coord": {"lat": 35.371109, "lon": 139.223618}, "name": "Hadano"}, {"country": "JP", "state": "", "id": 1863440, "coord": {"lat": 35.65583, "lon": 139.323883}, "name": "Hachi\u014dji"}, {"country": "JP", "state": "", "id": 1863451, "coord": {"lat": 35.128609, "lon": 136.097595}, "name": "\u014cmihachiman"}, {"country": "JP", "state": "", "id": 1863475, "coord": {"lat": 33.816669, "lon": 130.699997}, "name": "Habu"}, {"country": "JP", "state": "", "id": 1863482, "coord": {"lat": 36.133331, "lon": 139.449997}, "name": "Gy\u014dda"}, {"country": "JP", "state": "", "id": 1863495, "coord": {"lat": 26.354441, "lon": 127.868607}, "name": "Gushikawa"}, {"country": "JP", "state": "", "id": 1863501, "coord": {"lat": 36.507469, "lon": 138.982346}, "name": "Gunma-ken"}, {"country": "JP", "state": "", "id": 1863516, "coord": {"lat": 34.833328, "lon": 137.316666}, "name": "Goyuch\u014d"}, {"country": "JP", "state": "", "id": 1863521, "coord": {"lat": 35.0, "lon": 132.216675}, "name": "G\u014dtsuch\u014d"}, {"country": "JP", "state": "", "id": 1863528, "coord": {"lat": 35.299999, "lon": 138.933334}, "name": "Gotenba"}, {"country": "JP", "state": "", "id": 1863540, "coord": {"lat": 37.73333, "lon": 139.166672}, "name": "Gosen"}, {"country": "JP", "state": "", "id": 1863541, "coord": {"lat": 34.450001, "lon": 135.733337},